[{
    "code": "ALD",
    "name": "Alderson",
    "nameTitle": "FPC Alderson",
    "nameDisplay": "Alderson FPC",
    "complexCode": "",
    "type": "FPC",
    "securityLevel": "Minimum",
    "region": "Mid-Atlantic Region",
    "latitude": "37.725277605059226",
    "longitude": "-80.65844535827637",
    "url": "/locations/institutions/ald/",
    "timeZone": "E",
    "address": "GLEN RAY RD. BOX A",
    "city": "ALDERSON",
    "state": "WV",
    "zipCode": "24910",
    "phoneNumber": "304-445-3300",
    "contactEmail": "ALD-ExecAssistant@bop.gov",
    "locationtype": "inst",
    "privateFacl": "f",
    "gender": "female",
    "special": false,
    "faclTypeDescription": "Federal Prison Camp",
    "hasCamp": false,
    "imageNormal": "/locations/institutions/ald/ALD_lrg.jpg",
    "imageSmall": "/locations/institutions/ald/ALD_sm.jpg",
    "hasFsl": false,
    "hasFdc": false,
    "hasSff": false,
    "hasIhp": false
}, {
    "code": "ALI",
    "name": "Aliceville",
    "nameTitle": "FCI Aliceville",
    "nameDisplay": "Aliceville FCI",
    "complexCode": "",
    "type": "FCI",
    "securityLevel": "Low",
    "region": "Southeast Region",
    "latitude": "33.144055298450276",
    "longitude": "-88.1669569015503",
    "url": "/locations/institutions/ali/",
    "timeZone": "C",
    "address": "11070 HIGHWAY 14",
    "city": "ALICEVILLE",
    "state": "AL",
    "zipCode": "35442",
    "phoneNumber": "205-373-5000",
    "contactEmail": "ALI-ExecAssistant-S@bop.gov",
    "locationtype": "inst",
    "privateFacl": "f",
    "gender": "female",
    "special": false,
    "faclTypeDescription": "Federal Correctional Institution",
    "hasCamp": true,
    "imageNormal": "/locations/institutions/ali/ALI_lrg.jpg",
    "imageSmall": "/locations/institutions/ali/ALI_sm.jpg",
    "hasFsl": false,
    "hasFdc": false,
    "hasSff": false,
    "hasIhp": true
}, {
    "code": "ALF",
    "name": "Allenwood Low",
    "nameTitle": "FCI Allenwood Low",
    "nameDisplay": "Allenwood Low FCI",
    "complexCode": "ALX",
    "type": "FCI",
    "securityLevel": "Low",
    "region": "Northeast Region",
    "latitude": "41.163656667848024",
    "longitude": "-76.92302942276001",
    "url": "/locations/institutions/alf/",
    "timeZone": "E",
    "address": "RT 15,2 MILES N OF ALLENWOOD",
    "city": "ALLENWOOD",
    "state": "PA",
    "zipCode": "17810",
    "phoneNumber": "570-547-1990",
    "contactEmail": "ALX-ExecAssistant@bop.gov",
    "locationtype": "inst",
    "privateFacl": "f",
    "gender": "male",
    "special": false,
    "faclTypeDescription": "Federal Correctional Institution",
    "hasCamp": false,
    "imageNormal": "/locations/institutions/alf/ALF_lrg.jpg",
    "imageSmall": "/locations/institutions/alf/ALF_sm.jpg",
    "hasFsl": false,
    "hasFdc": false,
    "hasSff": false,
    "hasIhp": true
}, {
    "code": "ALM",
    "name": "Allenwood Medium",
    "nameTitle": "FCI Allenwood Medium",
    "nameDisplay": "Allenwood Medium FCI",
    "complexCode": "ALX",
    "type": "FCI",
    "securityLevel": "Medium",
    "region": "Northeast Region",
    "latitude": "41.128455655130786",
    "longitude": "-76.91230058670044",
    "url": "/locations/institutions/alm/",
    "timeZone": "E",
    "address": "RT 15, 2 MI N OF ALLENWOOD",
    "city": "WHITE DEER",
    "state": "PA",
    "zipCode": "17810",
    "phoneNumber": "570-547-7950",
    "contactEmail": "ALX-ExecAssistant@bop.gov",
    "locationtype": "inst",
    "privateFacl": "f",
    "gender": "male",
    "special": false,
    "faclTypeDescription": "Federal Correctional Institution",
    "hasCamp": false,
    "imageNormal": "/locations/institutions/alm/ALM_lrg.jpg",
    "imageSmall": "/locations/institutions/alm/ALM_sm.jpg",
    "hasFsl": false,
    "hasFdc": false,
    "hasSff": false,
    "hasIhp": true
}, {
    "code": "ALX",
    "name": "Allenwood",
    "nameTitle": "FCC Allenwood",
    "nameDisplay": "Allenwood FCC",
    "complexCode": "ALX",
    "type": "FCC",
    "securityLevel": "N/A",
    "region": "Northeast Region",
    "latitude": "41.128455655130786",
    "longitude": "-76.91230058670044",
    "url": "/locations/search.jsp?q\u003dFCC+Allenwood\u0026name\u003dAllenwood\u0026facilityType\u003dFCC",
    "timeZone": "E",
    "address": "PO BOX 1000",
    "city": "MONTGOMERY",
    "state": "PA",
    "zipCode": "17752",
    "phoneNumber": "-1--1",
    "contactEmail": "ALX-ExecAssistant@bop.gov",
    "locationtype": "inst",
    "privateFacl": "f",
    "gender": "male",
    "special": false,
    "faclTypeDescription": "Federal Correctional Complex",
    "hasCamp": false,
    "imageNormal": "/locations/institutions/alx/ALX_lrg.jpg",
    "imageSmall": "/locations/institutions/alx/ALX_sm.jpg",
    "hasFsl": false,
    "hasFdc": false,
    "hasSff": false,
    "hasIhp": false
}, {
    "code": "ALP",
    "name": "Allenwood",
    "nameTitle": "USP Allenwood",
    "nameDisplay": "Allenwood USP",
    "complexCode": "ALX",
    "type": "USP",
    "securityLevel": "High",
    "region": "Northeast Region",
    "latitude": "41.128455655130786",
    "longitude": "-76.91230058670044",
    "url": "/locations/institutions/alp/",
    "timeZone": "E",
    "address": "RT 15,2 MILES N OF ALLENWOOD",
    "city": "ALLENWOOD",
    "state": "PA",
    "zipCode": "17810",
    "phoneNumber": "570-547-0963",
    "contactEmail": "ALX-ExecAssistant@bop.gov",
    "locationtype": "inst",
    "privateFacl": "f",
    "gender": "male",
    "special": false,
    "faclTypeDescription": "U.S. Penitentiary",
    "hasCamp": false,
    "imageNormal": "/locations/institutions/alp/ALP_lrg.jpg",
    "imageSmall": "/locations/institutions/alp/ALP_sm.jpg",
    "hasFsl": false,
    "hasFdc": false,
    "hasSff": false,
    "hasIhp": true
}, {
    "code": "ASH",
    "name": "Ashland",
    "nameTitle": "FCI Ashland",
    "nameDisplay": "Ashland FCI",
    "complexCode": "",
    "type": "FCI",
    "securityLevel": "Low",
    "region": "Mid-Atlantic Region",
    "latitude": "38.43626194850654",
    "longitude": "-82.70134449005127",
    "url": "/locations/institutions/ash/",
    "timeZone": "E",
    "address": "ST. ROUTE 716",
    "city": "ASHLAND",
    "state": "KY",
    "zipCode": "41105",
    "phoneNumber": "606-928-6414",
    "contactEmail": "ASH-ExecAssistant@bop.gov",
    "locationtype": "inst",
    "privateFacl": "f",
    "gender": "male",
    "special": false,
    "faclTypeDescription": "Federal Correctional Institution",
    "hasCamp": true,
    "imageNormal": "/locations/institutions/ash/ASH_lg.jpg",
    "imageSmall": "/locations/institutions/ash/ASH_sm.jpg",
    "hasFsl": false,
    "hasFdc": false,
    "hasSff": false,
    "hasIhp": false
}, {
    "code": "CAT",
    "name": "Atlanta",
    "nameTitle": "RRM Atlanta",
    "nameDisplay": "Atlanta RRM",
    "complexCode": "",
    "type": "RRM",
    "securityLevel": "N/A",
    "region": "Southeast Region",
    "latitude": "33.71188173364292",
    "longitude": "-84.3639063835144",
    "url": "/locations/ccm/cat",
    "timeZone": "E",
    "address": "719 MCDONOUGH BLVD S.E.",
    "city": "ATLANTA",
    "state": "GA",
    "zipCode": "30315",
    "phoneNumber": "404-635-5679",
    "contactEmail": "CAT-CCM@bop.gov",
    "locationtype": "rrm",
    "privateFacl": "f",
    "gender": "n/a",
    "special": false,
    "faclTypeDescription": "Residential Reentry Office",
    "hasCamp": false,
    "imageNormal": "",
    "imageSmall": "",
    "hasFsl": false,
    "hasFdc": false,
    "hasSff": false,
    "hasIhp": false
}, {
    "code": "ATL",
    "name": "Atlanta",
    "nameTitle": "USP Atlanta",
    "nameDisplay": "Atlanta USP",
    "complexCode": "",
    "type": "USP",
    "securityLevel": "Medium",
    "region": "Southeast Region",
    "latitude": "33.711463",
    "longitude": "-84.371153",
    "url": "/locations/institutions/atl/",
    "timeZone": "E",
    "address": "601 MCDONOUGH BLVD SE",
    "city": "ATLANTA",
    "state": "GA",
    "zipCode": "30315",
    "phoneNumber": "404-635-5100",
    "contactEmail": "ATL-ExecAssistant@bop.gov",
    "locationtype": "inst",
    "privateFacl": "f",
    "gender": "male",
    "special": false,
    "faclTypeDescription": "U.S. Penitentiary",
    "hasCamp": false,
    "imageNormal": "/locations/institutions/atl/ATL_lg.jpg",
    "imageSmall": "/locations/institutions/atl/ATL_sm.jpg",
    "hasFsl": false,
    "hasFdc": true,
    "hasSff": false,
    "hasIhp": false
}, {
    "code": "ATW",
    "name": "Atwater",
    "nameTitle": "USP Atwater",
    "nameDisplay": "Atwater USP",
    "complexCode": "",
    "type": "USP",
    "securityLevel": "High",
    "region": "Western Region",
    "latitude": "37.38309935091961",
    "longitude": "-120.55909395217896",
    "url": "/locations/institutions/atw/",
    "timeZone": "P",
    "address": "1 FEDERAL WAY",
    "city": "ATWATER",
    "state": "CA",
    "zipCode": "95301",
    "phoneNumber": "209-386-0257",
    "contactEmail": "ATW-ExecAssistant-S@bop.gov",
    "locationtype": "inst",
    "privateFacl": "f",
    "gender": "male",
    "special": false,
    "faclTypeDescription": "U.S. Penitentiary",
    "hasCamp": true,
    "imageNormal": "/locations/institutions/atw/ATW_lrg.jpg",
    "imageSmall": "/locations/institutions/atw/ATW_sm.jpg",
    "hasFsl": false,
    "hasFdc": false,
    "hasSff": false,
    "hasIhp": false
}, {
    "code": "CBR",
    "name": "Baltimore",
    "nameTitle": "RRM Baltimore",
    "nameDisplay": "Baltimore RRM",
    "complexCode": "",
    "type": "RRM",
    "securityLevel": "N/A",
    "region": "Mid-Atlantic Region",
    "latitude": "39.12027227440838",
    "longitude": "-76.77684903144836",
    "url": "/locations/ccm/cbr/",
    "timeZone": "E",
    "address": "400 FIRST STREET, NW",
    "city": "WASHINGTON",
    "state": "MD",
    "zipCode": "20534",
    "phoneNumber": "202-514-8304",
    "contactEmail": "CBR-CCM@bop.gov",
    "locationtype": "rrm",
    "privateFacl": "f",
    "gender": "n/a",
    "special": false,
    "faclTypeDescription": "Residential Reentry Office",
    "hasCamp": false,
    "imageNormal": "",
    "imageSmall": "",
    "hasFsl": false,
    "hasFdc": false,
    "hasSff": false,
    "hasIhp": false
}, {
    "code": "BAS",
    "name": "Bastrop",
    "nameTitle": "FCI Bastrop",
    "nameDisplay": "Bastrop FCI",
    "complexCode": "",
    "type": "FCI",
    "securityLevel": "Low",
    "region": "South Central Region",
    "latitude": "30.192914965504624",
    "longitude": "-97.30746388435364",
    "url": "/locations/institutions/bas/",
    "timeZone": "C",
    "address": "1341 HIGHWAY 95 NORTH",
    "city": "BASTROP",
    "state": "TX",
    "zipCode": "78602",
    "phoneNumber": "512-321-3903",
    "contactEmail": "BAS-ExecAssistant@bop.gov",
    "locationtype": "inst",
    "privateFacl": "f",
    "gender": "male",
    "special": false,
    "faclTypeDescription": "Federal Correctional Institution",
    "hasCamp": true,
    "imageNormal": "/locations/institutions/bas/BAS_lrg.jpg",
    "imageSmall": "/locations/institutions/bas/BAS_sm.jpg",
    "hasFsl": false,
    "hasFdc": false,
    "hasSff": false,
    "hasIhp": false
}, {
    "code": "BML",
    "name": "Beaumont Low",
    "nameTitle": "FCI Beaumont Low",
    "nameDisplay": "Beaumont Low FCI",
    "complexCode": "BMX",
    "type": "FCI",
    "securityLevel": "Low",
    "region": "South Central Region",
    "latitude": "29.963523369409856",
    "longitude": "-94.07785892486572",
    "url": "/locations/institutions/bml/",
    "timeZone": "C",
    "address": "5560 KNAUTH ROAD",
    "city": "BEAUMONT",
    "state": "TX",
    "zipCode": "77705",
    "phoneNumber": "409-727-8172",
    "contactEmail": "BML-ExecAssistant@bop.gov",
    "locationtype": "inst",
    "privateFacl": "f",
    "gender": "male",
    "special": false,
    "faclTypeDescription": "Federal Correctional Institution",
    "hasCamp": true,
    "imageNormal": "/locations/institutions/bml/BML_lrg.jpg",
    "imageSmall": "/locations/institutions/bml/BML_sm.jpg",
    "hasFsl": false,
    "hasFdc": false,
    "hasSff": false,
    "hasIhp": false
}, {
    "code": "BMM",
    "name": "Beaumont Medium",
    "nameTitle": "FCI Beaumont Medium",
    "nameDisplay": "Beaumont Medium FCI",
    "complexCode": "BMX",
    "type": "FCI",
    "securityLevel": "Medium",
    "region": "South Central Region",
    "latitude": "29.963523369409856",
    "longitude": "-94.07785892486572",
    "url": "/locations/institutions/bmm/",
    "timeZone": "C",
    "address": "5830 KNAUTH ROAD",
    "city": "BEAUMONT",
    "state": "TX",
    "zipCode": "77705",
    "phoneNumber": "409-727-0101",
    "contactEmail": "BMM-ExecAssistant@bop.gov",
    "locationtype": "inst",
    "privateFacl": "f",
    "gender": "male",
    "special": false,
    "faclTypeDescription": "Federal Correctional Institution",
    "hasCamp": false,
    "imageNormal": "/locations/institutions/bmm/BMM_lrg.jpg",
    "imageSmall": "/locations/institutions/bmm/BMM_sm.jpg",
    "hasFsl": false,
    "hasFdc": false,
    "hasSff": false,
    "hasIhp": false
}, {
    "code": "BMX",
    "name": "Beaumont",
    "nameTitle": "FCC Beaumont",
    "nameDisplay": "Beaumont FCC",
    "complexCode": "BMX",
    "type": "FCC",
    "securityLevel": "N/A",
    "region": "South Central Region",
    "latitude": "29.963523369409856",
    "longitude": "-94.07785892486572",
    "url": "/locations/search.jsp?q\u003dFCC+Beaumont\u0026name\u003dBeaumont\u0026facilityType\u003dFCC",
    "timeZone": "C",
    "address": "5830 KNAUTH ROAD",
    "city": "BEAUMONT",
    "state": "TX",
    "zipCode": "77705",
    "phoneNumber": "-1--1",
    "contactEmail": "",
    "locationtype": "inst",
    "privateFacl": "f",
    "gender": "male",
    "special": false,
    "faclTypeDescription": "Federal Correctional Complex",
    "hasCamp": false,
    "imageNormal": "/locations/institutions/bmx/BMX_lrg.jpg",
    "imageSmall": "/locations/institutions/bmx/BMX_sm.jpg",
    "hasFsl": false,
    "hasFdc": false,
    "hasSff": false,
    "hasIhp": false
}, {
    "code": "BMP",
    "name": "Beaumont",
    "nameTitle": "USP Beaumont",
    "nameDisplay": "Beaumont USP",
    "complexCode": "BMX",
    "type": "USP",
    "securityLevel": "High",
    "region": "South Central Region",
    "latitude": "29.963523369409856",
    "longitude": "-94.07785892486572",
    "url": "/locations/institutions/bmp/",
    "timeZone": "C",
    "address": "6200 KNAUTH ROAD",
    "city": "BEAUMONT",
    "state": "TX",
    "zipCode": "77705",
    "phoneNumber": "409-727-8188",
    "contactEmail": "BMP-ExecAssistant@bop.gov",
    "locationtype": "inst",
    "privateFacl": "f",
    "gender": "male",
    "special": false,
    "faclTypeDescription": "U.S. Penitentiary",
    "hasCamp": false,
    "imageNormal": "/locations/institutions/bmp/BMP_lrg.jpg",
    "imageSmall": "/locations/institutions/bmp/BMP_sm.jpg",
    "hasFsl": false,
    "hasFdc": false,
    "hasSff": false,
    "hasIhp": false
}, {
    "code": "BEC",
    "name": "Beckley",
    "nameTitle": "FCI Beckley",
    "nameDisplay": "Beckley FCI",
    "complexCode": "",
    "type": "FCI",
    "securityLevel": "Medium",
    "region": "Mid-Atlantic Region",
    "latitude": "37.808292105520145",
    "longitude": "-81.12555742263794",
    "url": "/locations/institutions/bec/",
    "timeZone": "E",
    "address": "1600 INDUSTRIAL ROAD",
    "city": "BEAVER",
    "state": "WV",
    "zipCode": "25813",
    "phoneNumber": "304-252-9758",
    "contactEmail": "BEC-ExecAssistant@bop.gov",
    "locationtype": "inst",
    "privateFacl": "f",
    "gender": "male",
    "special": false,
    "faclTypeDescription": "Federal Correctional Institution",
    "hasCamp": true,
    "imageNormal": "/locations/institutions/bec/BEC_lrg.jpg",
    "imageSmall": "/locations/institutions/bec/BEC_sm.jpg",
    "hasFsl": false,
    "hasFdc": false,
    "hasSff": false,
    "hasIhp": false
}, {
    "code": "BEN",
    "name": "Bennettsville",
    "nameTitle": "FCI Bennettsville",
    "nameDisplay": "Bennettsville FCI",
    "complexCode": "",
    "type": "FCI",
    "securityLevel": "Medium",
    "region": "Southeast Region",
    "latitude": "34.67387626588273",
    "longitude": "-79.72460746765137",
    "url": "/locations/institutions/ben/",
    "timeZone": "E",
    "address": "696 MUCKERMAN ROAD",
    "city": "BENNETTSVILLE",
    "state": "SC",
    "zipCode": "29512",
    "phoneNumber": "843-454-8200",
    "contactEmail": "BEN-ExecAssistant@bop.gov",
    "locationtype": "inst",
    "privateFacl": "f",
    "gender": "male",
    "special": false,
    "faclTypeDescription": "Federal Correctional Institution",
    "hasCamp": true,
    "imageNormal": "/locations/institutions/ben/BEN_lrg.jpg",
    "imageSmall": "/locations/institutions/ben/BEN_sm.jpg",
    "hasFsl": false,
    "hasFdc": false,
    "hasSff": false,
    "hasIhp": false
}, {
    "code": "BER",
    "name": "Berlin",
    "nameTitle": "FCI Berlin",
    "nameDisplay": "Berlin FCI",
    "complexCode": "",
    "type": "FCI",
    "securityLevel": "Medium",
    "region": "Northeast Region",
    "latitude": "44.52254966316118",
    "longitude": "-71.13761186599731",
    "url": "/locations/institutions/ber/",
    "timeZone": "E",
    "address": "1 SUCCESS LOOP ROAD",
    "city": "BERLIN",
    "state": "NH",
    "zipCode": "03570",
    "phoneNumber": "603-342-4000",
    "contactEmail": "BER-Execassistant@bop.gov",
    "locationtype": "inst",
    "privateFacl": "f",
    "gender": "male",
    "special": false,
    "faclTypeDescription": "Federal Correctional Institution",
    "hasCamp": true,
    "imageNormal": "/locations/institutions/ber/BER_lrg.jpg",
    "imageSmall": "/locations/institutions/ber/BER_sm.jpg",
    "hasFsl": false,
    "hasFdc": false,
    "hasSff": false,
    "hasIhp": false
}, {
    "code": "BSY",
    "name": "Big Sandy",
    "nameTitle": "USP Big Sandy",
    "nameDisplay": "Big Sandy USP",
    "complexCode": "",
    "type": "USP",
    "securityLevel": "High",
    "region": "Mid-Atlantic Region",
    "latitude": "37.84246141054429",
    "longitude": "-82.53667831420898",
    "url": "/locations/institutions/bsy/",
    "timeZone": "E",
    "address": "1197 AIRPORT ROAD",
    "city": "INEZ",
    "state": "KY",
    "zipCode": "41224",
    "phoneNumber": "606-433-2400",
    "contactEmail": "BSY-ExecAssistant@bop.gov",
    "locationtype": "inst",
    "privateFacl": "f",
    "gender": "male",
    "special": false,
    "faclTypeDescription": "U.S. Penitentiary",
    "hasCamp": true,
    "imageNormal": "/locations/institutions/bsy/BSY_lrg.jpg",
    "imageSmall": "/locations/institutions/bsy/BSY_sm.jpg",
    "hasFsl": false,
    "hasFdc": false,
    "hasSff": false,
    "hasIhp": false
}, {
    "code": "BIG",
    "name": "Big Spring",
    "nameTitle": "FCI Big Spring",
    "nameDisplay": "Big Spring FCI",
    "complexCode": "",
    "type": "FCI",
    "securityLevel": "Low",
    "region": "South Central Region",
    "latitude": "32.22123811076942",
    "longitude": "-101.50749206542969",
    "url": "/locations/institutions/big/",
    "timeZone": "C",
    "address": "1900 SIMLER AVE",
    "city": "BIG SPRING",
    "state": "TX",
    "zipCode": "79720",
    "phoneNumber": "432-466-2300",
    "contactEmail": "BIG-ExecAssistant@bop.gov",
    "locationtype": "inst",
    "privateFacl": "f",
    "gender": "male",
    "special": false,
    "faclTypeDescription": "Federal Correctional Institution",
    "hasCamp": true,
    "imageNormal": "/locations/institutions/big/BIG_lrg.jpg",
    "imageSmall": "/locations/institutions/big/BIG_sm.jpg",
    "hasFsl": false,
    "hasFdc": false,
    "hasSff": false,
    "hasIhp": false
}, {
    "code": "BRO",
    "name": "Brooklyn",
    "nameTitle": "MDC Brooklyn",
    "nameDisplay": "Brooklyn MDC",
    "complexCode": "",
    "type": "MDC",
    "securityLevel": "Administrative",
    "region": "Northeast Region",
    "latitude": "40.66022101614251",
    "longitude": "-74.00356829166412",
    "url": "/locations/institutions/bro/",
    "timeZone": "E",
    "address": "80 29TH STREET",
    "city": "BROOKLYN",
    "state": "NY",
    "zipCode": "11232",
    "phoneNumber": "718-840-4200",
    "contactEmail": "BRO-ExecAssistant-S@bop.gov",
    "locationtype": "inst",
    "privateFacl": "f",
    "gender": "mixed",
    "special": false,
    "faclTypeDescription": "Metropolitan Detention Center",
    "hasCamp": false,
    "imageNormal": "/locations/institutions/bro/BRO_lrg.jpg",
    "imageSmall": "/locations/institutions/bro/BRO_sm.jpg",
    "hasFsl": false,
    "hasFdc": false,
    "hasSff": false,
    "hasIhp": false
}, {
    "code": "BRY",
    "name": "Bryan",
    "nameTitle": "FPC Bryan",
    "nameDisplay": "Bryan FPC",
    "complexCode": "",
    "type": "FPC",
    "securityLevel": "Minimum",
    "region": "South Central Region",
    "latitude": "30.676010684831894",
    "longitude": "-96.36138439178467",
    "url": "/locations/institutions/bry/",
    "timeZone": "C",
    "address": "1100 URSULINE AVENUE",
    "city": "BRYAN",
    "state": "TX",
    "zipCode": "77803",
    "phoneNumber": "979-823-1879",
    "contactEmail": "BRY-PublicInformation@bop.gov",
    "locationtype": "inst",
    "privateFacl": "f",
    "gender": "female",
    "special": false,
    "faclTypeDescription": "Federal Prison Camp",
    "hasCamp": false,
    "imageNormal": "/locations/institutions/bry/BRY_lrg.jpg",
    "imageSmall": "/locations/institutions/bry/BRY_sm.jpg",
    "hasFsl": false,
    "hasFdc": false,
    "hasSff": false,
    "hasIhp": false
}, {
    "code": "BUF",
    "name": "Butner Low",
    "nameTitle": "FCI Butner Low",
    "nameDisplay": "Butner Low FCI",
    "complexCode": "BUX",
    "type": "FCI",
    "securityLevel": "Low",
    "region": "Mid-Atlantic Region",
    "latitude": "36.138212637486205",
    "longitude": "-78.79944920539856",
    "url": "/locations/institutions/buf/",
    "timeZone": "E",
    "address": "OLD NC HWY 75",
    "city": "BUTNER",
    "state": "NC",
    "zipCode": "27509",
    "phoneNumber": "919-575-5000",
    "contactEmail": "BUF-ExecAssistant@bop.gov",
    "locationtype": "inst",
    "privateFacl": "f",
    "gender": "male",
    "special": false,
    "faclTypeDescription": "Federal Correctional Institution",
    "hasCamp": false,
    "imageNormal": "/locations/institutions/buf/BUF_lrg.jpg",
    "imageSmall": "/locations/institutions/buf/BUF_sm.jpg",
    "hasFsl": false,
    "hasFdc": false,
    "hasSff": false,
    "hasIhp": false
}, {
    "code": "BUT",
    "name": "Butner Medium I",
    "nameTitle": "FCI Butner Medium I",
    "nameDisplay": "Butner Medium I FCI",
    "complexCode": "BUX",
    "type": "FCI",
    "securityLevel": "Medium",
    "region": "Mid-Atlantic Region",
    "latitude": "36.138212637486205",
    "longitude": "-78.79944920539856",
    "url": "/locations/institutions/but/",
    "timeZone": "E",
    "address": "OLD NC HWY 75",
    "city": "BUTNER",
    "state": "NC",
    "zipCode": "27509",
    "phoneNumber": "919-575-4541",
    "contactEmail": "BUT-ExecAssistant@bop.gov",
    "locationtype": "inst",
    "privateFacl": "f",
    "gender": "male",
    "special": false,
    "faclTypeDescription": "Federal Correctional Institution",
    "hasCamp": true,
    "imageNormal": "/locations/institutions/but/BUT_lrg.jpg",
    "imageSmall": "/locations/institutions/but/BUT_sm.jpg",
    "hasFsl": false,
    "hasFdc": false,
    "hasSff": false,
    "hasIhp": false
}, {
    "code": "BTF",
    "name": "Butner Medium II",
    "nameTitle": "FCI Butner Medium II",
    "nameDisplay": "Butner Medium II FCI",
    "complexCode": "BUX",
    "type": "FCI",
    "securityLevel": "Medium",
    "region": "Mid-Atlantic Region",
    "latitude": "36.138212637486205",
    "longitude": "-78.79944920539856",
    "url": "/locations/institutions/btf/",
    "timeZone": "E",
    "address": "OLD NC HWY 75",
    "city": "BUTNER",
    "state": "NC",
    "zipCode": "27509",
    "phoneNumber": "919-575-8000",
    "contactEmail": "BTF-ExecAssistant@bop.gov",
    "locationtype": "inst",
    "privateFacl": "f",
    "gender": "male",
    "special": false,
    "faclTypeDescription": "Federal Correctional Institution",
    "hasCamp": false,
    "imageNormal": "/locations/institutions/btf/BTF_lrg.jpg",
    "imageSmall": "/locations/institutions/btf/BTF_sm.jpg",
    "hasFsl": false,
    "hasFdc": false,
    "hasSff": false,
    "hasIhp": false
}, {
    "code": "BUX",
    "name": "Butner",
    "nameTitle": "FCC Butner",
    "nameDisplay": "Butner FCC",
    "complexCode": "BUX",
    "type": "FCC",
    "securityLevel": "N/A",
    "region": "Mid-Atlantic Region",
    "latitude": "36.138212637486205",
    "longitude": "-78.79944920539856",
    "url": "/locations/search.jsp?q\u003dFCC+Butner\u0026name\u003dButner\u0026facilityType\u003dFCC",
    "timeZone": "E",
    "address": "OLD NC HWY 75",
    "city": "BUTNER",
    "state": "NC",
    "zipCode": "27509",
    "phoneNumber": "-1--1",
    "contactEmail": "",
    "locationtype": "inst",
    "privateFacl": "f",
    "gender": "male",
    "special": false,
    "faclTypeDescription": "Federal Correctional Complex",
    "hasCamp": false,
    "imageNormal": "",
    "imageSmall": "",
    "hasFsl": false,
    "hasFdc": false,
    "hasSff": false,
    "hasIhp": false
}, {
    "code": "BUH",
    "name": "Butner",
    "nameTitle": "FMC Butner",
    "nameDisplay": "Butner FMC",
    "complexCode": "BUX",
    "type": "FMC",
    "securityLevel": "Administrative",
    "region": "Mid-Atlantic Region",
    "latitude": "36.138212637486205",
    "longitude": "-78.79944920539856",
    "url": "/locations/institutions/buh/",
    "timeZone": "E",
    "address": "OLD N. CAROLINA HWY 75",
    "city": "BUTNER",
    "state": "NC",
    "zipCode": "27509",
    "phoneNumber": "919-575-3900",
    "contactEmail": "BUH-ExecAssistant@bop.gov",
    "locationtype": "inst",
    "privateFacl": "f",
    "gender": "male",
    "special": false,
    "faclTypeDescription": "Federal Medical Center",
    "hasCamp": false,
    "imageNormal": "/locations/institutions/buh/BUH_lrg.jpg",
    "imageSmall": "/locations/institutions/buh/BUH_sm.jpg",
    "hasFsl": false,
    "hasFdc": false,
    "hasSff": false,
    "hasIhp": false
}, {
    "code": "CAA",
    "name": "Canaan",
    "nameTitle": "USP Canaan",
    "nameDisplay": "Canaan USP",
    "complexCode": "",
    "type": "USP",
    "securityLevel": "High",
    "region": "Northeast Region",
    "latitude": "41.56763099525645",
    "longitude": "-75.40834307670593",
    "url": "/locations/institutions/caa/",
    "timeZone": "E",
    "address": "3057 ERIC J. WILLIAMS",
    "city": "WAYMART",
    "state": "PA",
    "zipCode": "18472",
    "phoneNumber": "570-488-8000",
    "contactEmail": "CAA-ExecAssistant@bop.gov",
    "locationtype": "inst",
    "privateFacl": "f",
    "gender": "male",
    "special": false,
    "faclTypeDescription": "U.S. Penitentiary",
    "hasCamp": true,
    "imageNormal": "/locations/institutions/caa/CAA_lrg.jpg",
    "imageSmall": "/locations/institutions/caa/CAA_sm.jpg",
    "hasFsl": false,
    "hasFdc": false,
    "hasSff": false,
    "hasIhp": false
}, {
    "code": "CRW",
    "name": "Carswell",
    "nameTitle": "FMC Carswell",
    "nameDisplay": "Carswell FMC",
    "complexCode": "",
    "type": "FMC",
    "securityLevel": "Administrative",
    "region": "South Central Region",
    "latitude": "32.78538039249088",
    "longitude": "-97.41971969604492",
    "url": "/locations/institutions/crw/",
    "timeZone": "C",
    "address": "NAVAL AIR STATION",
    "city": "FORT WORTH",
    "state": "TX",
    "zipCode": "76127",
    "phoneNumber": "817-782-4000",
    "contactEmail": "CRW-ExecAssistant@bop.gov",
    "locationtype": "inst",
    "privateFacl": "f",
    "gender": "female",
    "special": false,
    "faclTypeDescription": "Federal Medical Center",
    "hasCamp": true,
    "imageNormal": "/locations/institutions/crw/CRW_lrg.jpg",
    "imageSmall": "/locations/institutions/crw/CRW_sm.jpg",
    "hasFsl": false,
    "hasFdc": false,
    "hasSff": false,
    "hasIhp": false
}, {
    "code": "BOP",
    "name": "Central Office HQ",
    "nameTitle": "Central Office HQ",
    "nameDisplay": "Central Office HQ",
    "complexCode": "",
    "type": "CO",
    "securityLevel": "N/A",
    "region": "Central Office",
    "latitude": "38.89382399228095",
    "longitude": "-77.01224640011787",
    "url": "/locations/central_office/",
    "timeZone": "E",
    "address": "320 FIRST STREET, NW",
    "city": "WASHINGTON",
    "state": "DC",
    "zipCode": "20534",
    "phoneNumber": "202-307-3198",
    "contactEmail": "info@bop.gov",
    "locationtype": "co",
    "privateFacl": "f",
    "gender": "n/a",
    "special": false,
    "faclTypeDescription": "Central Office",
    "hasCamp": false,
    "imageNormal": "/locations/central_office/CO_lrg.jpg",
    "imageSmall": "/locations/central_office/CO_sm.jpg",
    "hasFsl": false,
    "hasFdc": false,
    "hasSff": false,
    "hasIhp": false
}, {
    "code": "CCC",
    "name": "Chicago",
    "nameTitle": "MCC Chicago",
    "nameDisplay": "Chicago MCC",
    "complexCode": "",
    "type": "MCC",
    "securityLevel": "Administrative",
    "region": "North Central Region",
    "latitude": "41.876665007896996",
    "longitude": "-87.63018518686295",
    "url": "/locations/institutions/ccc/",
    "timeZone": "C",
    "address": "71 WEST VAN BUREN STREET",
    "city": "CHICAGO",
    "state": "IL",
    "zipCode": "60605",
    "phoneNumber": "312-322-0567",
    "contactEmail": "CCC-ExecAssistant-S@bop.gov",
    "locationtype": "inst",
    "privateFacl": "f",
    "gender": "mixed",
    "special": false,
    "faclTypeDescription": "Metropolitan Correctional Center",
    "hasCamp": false,
    "imageNormal": "/locations/institutions/ccc/CCC_lrg.jpg",
    "imageSmall": "/locations/institutions/ccc/CCC_sm.jpg",
    "hasFsl": false,
    "hasFdc": false,
    "hasSff": false,
    "hasIhp": false
}, {
    "code": "CCH",
    "name": "Chicago",
    "nameTitle": "RRM Chicago",
    "nameDisplay": "Chicago RRM",
    "complexCode": "",
    "type": "RRM",
    "securityLevel": "N/A",
    "region": "North Central Region",
    "latitude": "41.879379047907044",
    "longitude": "-87.63412535190582",
    "url": "/locations/ccm/cch/",
    "timeZone": "C",
    "address": "1901 BUTTERFIELD ROAD, SUITE",
    "city": "DOWNERS GROVE",
    "state": "IL",
    "zipCode": "60515",
    "phoneNumber": "630-271-8669",
    "contactEmail": "CCH-CCM@bop.gov",
    "locationtype": "rrm",
    "privateFacl": "f",
    "gender": "n/a",
    "special": false,
    "faclTypeDescription": "Residential Reentry Office",
    "hasCamp": false,
    "imageNormal": "",
    "imageSmall": "",
    "hasFsl": false,
    "hasFdc": false,
    "hasSff": false,
    "hasIhp": false
}, {
    "code": "CCN",
    "name": "Cincinnati",
    "nameTitle": "RRM Cincinnati",
    "nameDisplay": "Cincinnati RRM",
    "complexCode": "",
    "type": "RRM",
    "securityLevel": "N/A",
    "region": "Northeast Region",
    "latitude": "39.10385710591814",
    "longitude": "-84.51236665248871",
    "url": "/locations/ccm/ccn/",
    "timeZone": "E",
    "address": "36 E. 7TH ST., SUITE 2107-A",
    "city": "CINCINNATI",
    "state": "OH",
    "zipCode": "45202",
    "phoneNumber": "513-684-2603",
    "contactEmail": "CCN-CCM@bop.gov",
    "locationtype": "rrm",
    "privateFacl": "f",
    "gender": "n/a",
    "special": false,
    "faclTypeDescription": "Residential Reentry Office",
    "hasCamp": false,
    "imageNormal": "",
    "imageSmall": "",
    "hasFsl": false,
    "hasFdc": false,
    "hasSff": false,
    "hasIhp": false
}, {
    "code": "CLP",
    "name": "Coleman II",
    "nameTitle": "USP Coleman II",
    "nameDisplay": "Coleman II USP",
    "complexCode": "COX",
    "type": "USP",
    "securityLevel": "High",
    "region": "Southeast Region",
    "latitude": "28.755825012996887",
    "longitude": "-82.0135349035263",
    "url": "/locations/institutions/clp/",
    "timeZone": "E",
    "address": "846 NE 54TH TERRACE",
    "city": "SUMTERVILLE",
    "state": "FL",
    "zipCode": "33521",
    "phoneNumber": "352-689-7000",
    "contactEmail": "COA-PublicInformation@bop.gov",
    "locationtype": "inst",
    "privateFacl": "f",
    "gender": "male",
    "special": false,
    "faclTypeDescription": "U.S. Penitentiary",
    "hasCamp": false,
    "imageNormal": "/locations/institutions/clp/CLP_lrg.jpg",
    "imageSmall": "/locations/institutions/clp/CLP_sm.jpg",
    "hasFsl": false,
    "hasFdc": false,
    "hasSff": false,
    "hasIhp": false
}, {
    "code": "COP",
    "name": "Coleman I",
    "nameTitle": "USP Coleman I",
    "nameDisplay": "Coleman I USP",
    "complexCode": "COX",
    "type": "USP",
    "securityLevel": "High",
    "region": "Southeast Region",
    "latitude": "28.755825012996887",
    "longitude": "-82.0135349035263",
    "url": "/locations/institutions/cop/",
    "timeZone": "E",
    "address": "846 NE 54TH TERRACE",
    "city": "SUMTERVILLE",
    "state": "FL",
    "zipCode": "33521",
    "phoneNumber": "352-689-6000",
    "contactEmail": "COA-PublicInformation@bop.gov",
    "locationtype": "inst",
    "privateFacl": "f",
    "gender": "male",
    "special": false,
    "faclTypeDescription": "U.S. Penitentiary",
    "hasCamp": false,
    "imageNormal": "/locations/institutions/cop/COP_lrg.jpg",
    "imageSmall": "/locations/institutions/cop/COP_sm.jpg",
    "hasFsl": false,
    "hasFdc": false,
    "hasSff": false,
    "hasIhp": false
}, {
    "code": "COL",
    "name": "Coleman Low",
    "nameTitle": "FCI Coleman Low",
    "nameDisplay": "Coleman Low FCI",
    "complexCode": "COX",
    "type": "FCI",
    "securityLevel": "Low",
    "region": "Southeast Region",
    "latitude": "28.755825012996887",
    "longitude": "-82.0135349035263",
    "url": "/locations/institutions/col/",
    "timeZone": "E",
    "address": "846 NE 54TH TERRACE",
    "city": "SUMTERVILLE",
    "state": "FL",
    "zipCode": "33521",
    "phoneNumber": "352-689-4000",
    "contactEmail": "COA-PublicInformation@bop.gov",
    "locationtype": "inst",
    "privateFacl": "f",
    "gender": "male",
    "special": false,
    "faclTypeDescription": "Federal Correctional Institution",
    "hasCamp": true,
    "imageNormal": "/locations/institutions/col/COL_lrg.jpg",
    "imageSmall": "/locations/institutions/col/COL_sm.jpg",
    "hasFsl": false,
    "hasFdc": false,
    "hasSff": false,
    "hasIhp": false
}, {
    "code": "COM",
    "name": "Coleman Medium",
    "nameTitle": "FCI Coleman Medium",
    "nameDisplay": "Coleman Medium FCI",
    "complexCode": "COX",
    "type": "FCI",
    "securityLevel": "Medium",
    "region": "Southeast Region",
    "latitude": "28.755825012996887",
    "longitude": "-82.0135349035263",
    "url": "/locations/institutions/com/",
    "timeZone": "E",
    "address": "846 NE 54TH TERRACE",
    "city": "SUMTERVILLE",
    "state": "FL",
    "zipCode": "33521",
    "phoneNumber": "352-689-5000",
    "contactEmail": "COA-PublicInformation@bop.gov",
    "locationtype": "inst",
    "privateFacl": "f",
    "gender": "male",
    "special": false,
    "faclTypeDescription": "Federal Correctional Institution",
    "hasCamp": false,
    "imageNormal": "/locations/institutions/com/COM_lrg.jpg",
    "imageSmall": "/locations/institutions/com/COM_sm.jpg",
    "hasFsl": false,
    "hasFdc": false,
    "hasSff": false,
    "hasIhp": false
}, {
    "code": "COX",
    "name": "Coleman",
    "nameTitle": "FCC Coleman",
    "nameDisplay": "Coleman FCC",
    "complexCode": "COX",
    "type": "FCC",
    "securityLevel": "N/A",
    "region": "Southeast Region",
    "latitude": "28.755825012996887",
    "longitude": "-82.0135349035263",
    "url": "/locations/search.jsp?q\u003dFCC+Coleman\u0026name\u003dColeman\u0026facilityType\u003dFCC",
    "timeZone": "E",
    "address": "846 NE 54TH TERRACE",
    "city": "COLEMAN",
    "state": "FL",
    "zipCode": "33521",
    "phoneNumber": "-1--1",
    "contactEmail": "COA-PublicInformation@bop.gov",
    "locationtype": "inst",
    "privateFacl": "f",
    "gender": "male",
    "special": false,
    "faclTypeDescription": "Federal Correctional Complex",
    "hasCamp": false,
    "imageNormal": "",
    "imageSmall": "",
    "hasFsl": false,
    "hasFdc": false,
    "hasSff": false,
    "hasIhp": false
}, {
    "code": "CUM",
    "name": "Cumberland",
    "nameTitle": "FCI Cumberland",
    "nameDisplay": "Cumberland FCI",
    "complexCode": "",
    "type": "FCI",
    "securityLevel": "Medium",
    "region": "Mid-Atlantic Region",
    "latitude": "39.59560288583264",
    "longitude": "-78.754141330719",
    "url": "/locations/institutions/cum/",
    "timeZone": "E",
    "address": "14601 BURBRIDGE RD SE",
    "city": "CUMBERLAND",
    "state": "MD",
    "zipCode": "21502",
    "phoneNumber": "301-784-1000",
    "contactEmail": "CUM-ExecAssistant@bop.gov",
    "locationtype": "inst",
    "privateFacl": "f",
    "gender": "male",
    "special": false,
    "faclTypeDescription": "Federal Correctional Institution",
    "hasCamp": true,
    "imageNormal": "/locations/institutions/cum/CUM_lrg.jpg",
    "imageSmall": "/locations/institutions/cum/CUM_sm.jpg",
    "hasFsl": false,
    "hasFdc": false,
    "hasSff": false,
    "hasIhp": false
}, {
    "code": "CDA",
    "name": "Dallas",
    "nameTitle": "RRM Dallas",
    "nameDisplay": "Dallas RRM",
    "complexCode": "",
    "type": "RRM",
    "securityLevel": "N/A",
    "region": "South Central Region",
    "latitude": "32.812670070909164",
    "longitude": "-96.81384086608887",
    "url": "/locations/ccm/cda/",
    "timeZone": "C",
    "address": "US ARMED FORCES RESERVE CMPL",
    "city": "GRAND PRAIRIE",
    "state": "TX",
    "zipCode": "75051",
    "phoneNumber": "972-730-8837",
    "contactEmail": "CDA-CCM@bop.gov",
    "locationtype": "rrm",
    "privateFacl": "f",
    "gender": "n/a",
    "special": false,
    "faclTypeDescription": "Residential Reentry Office",
    "hasCamp": false,
    "imageNormal": "",
    "imageSmall": "",
    "hasFsl": false,
    "hasFdc": false,
    "hasSff": false,
    "hasIhp": false
}, {
    "code": "DAN",
    "name": "Danbury",
    "nameTitle": "FCI Danbury",
    "nameDisplay": "Danbury FCI",
    "complexCode": "",
    "type": "FCI",
    "securityLevel": "Low",
    "region": "Northeast Region",
    "latitude": "41.4406915868142",
    "longitude": "-73.47323656082153",
    "url": "/locations/institutions/dan/",
    "timeZone": "E",
    "address": "33 1/2 PEMBROKE STATION",
    "city": "DANBURY",
    "state": "CT",
    "zipCode": "06811",
    "phoneNumber": "203-743-6471",
    "contactEmail": "DAN-ExecAssistant@bop.gov",
    "locationtype": "inst",
    "privateFacl": "f",
    "gender": "mixed",
    "special": false,
    "faclTypeDescription": "Federal Correctional Institution",
    "hasCamp": true,
    "imageNormal": "/locations/institutions/dan/DAN_lrg.jpg",
    "imageSmall": "/locations/institutions/dan/DAN_sm.jpg",
    "hasFsl": true,
    "hasFdc": false,
    "hasSff": false,
    "hasIhp": false
}, {
    "code": "CDT",
    "name": "Detroit",
    "nameTitle": "RRM Detroit",
    "nameDisplay": "Detroit RRM",
    "complexCode": "",
    "type": "RRM",
    "securityLevel": "N/A",
    "region": "North Central Region",
    "latitude": "42.09890703288096",
    "longitude": "-83.66957902908325",
    "url": "/locations/ccm/cdt/",
    "timeZone": "E",
    "address": "4026 E. ARKONA RD.",
    "city": "MILAN",
    "state": "MI",
    "zipCode": "48160",
    "phoneNumber": "734-439-7653",
    "contactEmail": "CDT-CCM@bop.gov",
    "locationtype": "rrm",
    "privateFacl": "f",
    "gender": "n/a",
    "special": false,
    "faclTypeDescription": "Residential Reentry Office",
    "hasCamp": false,
    "imageNormal": "",
    "imageSmall": "",
    "hasFsl": false,
    "hasFdc": false,
    "hasSff": false,
    "hasIhp": false
}, {
    "code": "DEV",
    "name": "Devens",
    "nameTitle": "FMC Devens",
    "nameDisplay": "Devens FMC",
    "complexCode": "",
    "type": "FMC",
    "securityLevel": "Administrative",
    "region": "Northeast Region",
    "latitude": "42.52879629320373",
    "longitude": "-71.62627816200256",
    "url": "/locations/institutions/dev/",
    "timeZone": "E",
    "address": "42 PATTON ROAD",
    "city": "AYER",
    "state": "MA",
    "zipCode": "01432",
    "phoneNumber": "978-796-1000",
    "contactEmail": "DEV-ExecAssistant@bop.gov",
    "locationtype": "inst",
    "privateFacl": "f",
    "gender": "male",
    "special": false,
    "faclTypeDescription": "Federal Medical Center",
    "hasCamp": true,
    "imageNormal": "/locations/institutions/dev/DEV_lrg.jpg",
    "imageSmall": "/locations/institutions/dev/DEV_sm.jpg",
    "hasFsl": false,
    "hasFdc": false,
    "hasSff": false,
    "hasIhp": false
}, {
    "code": "DUB",
    "name": "Dublin",
    "nameTitle": "FCI Dublin",
    "nameDisplay": "Dublin FCI",
    "complexCode": "",
    "type": "FCI",
    "securityLevel": "Low",
    "region": "Western Region",
    "latitude": "37.71593179457435",
    "longitude": "-121.88796758651733",
    "url": "/locations/institutions/dub/",
    "timeZone": "P",
    "address": "5701 8TH ST - CAMP PARKS",
    "city": "DUBLIN",
    "state": "CA",
    "zipCode": "94568",
    "phoneNumber": "925-833-7500",
    "contactEmail": "DUB-ExecAssistant-S@bop.gov",
    "locationtype": "inst",
    "privateFacl": "f",
    "gender": "female",
    "special": false,
    "faclTypeDescription": "Federal Correctional Institution",
    "hasCamp": true,
    "imageNormal": "/locations/institutions/dub/DUB_lrg.jpg",
    "imageSmall": "/locations/institutions/dub/DUB_sm.jpg",
    "hasFsl": false,
    "hasFdc": false,
    "hasSff": false,
    "hasIhp": true
}, {
    "code": "DTH",
    "name": "Duluth",
    "nameTitle": "FPC Duluth",
    "nameDisplay": "Duluth FPC",
    "complexCode": "",
    "type": "FPC",
    "securityLevel": "Minimum",
    "region": "North Central Region",
    "latitude": "46.8342697",
    "longitude": "-92.1958948",
    "url": "/locations/institutions/dth/",
    "timeZone": "C",
    "address": "4464 RALSTON DRIVE",
    "city": "DULUTH",
    "state": "MN",
    "zipCode": "55811",
    "phoneNumber": "218-722-8634",
    "contactEmail": "DTH-ExecAssistant@bop.gov",
    "locationtype": "inst",
    "privateFacl": "f",
    "gender": "male",
    "special": false,
    "faclTypeDescription": "Federal Prison Camp",
    "hasCamp": false,
    "imageNormal": "/locations/institutions/dth/DTH_lrg.jpg",
    "imageSmall": "/locations/institutions/dth/DTH_sm.jpg",
    "hasFsl": false,
    "hasFdc": false,
    "hasSff": false,
    "hasIhp": false
}, {
    "code": "EDG",
    "name": "Edgefield",
    "nameTitle": "FCI Edgefield",
    "nameDisplay": "Edgefield FCI",
    "complexCode": "",
    "type": "FCI",
    "securityLevel": "Medium",
    "region": "Southeast Region",
    "latitude": "33.760097075210616",
    "longitude": "-81.9198989868164",
    "url": "/locations/institutions/edg/",
    "timeZone": "E",
    "address": "501 GARY HILL ROAD",
    "city": "EDGEFIELD",
    "state": "SC",
    "zipCode": "29824",
    "phoneNumber": "803-637-1500",
    "contactEmail": "EDG-ExecAssistant@bop.gov",
    "locationtype": "inst",
    "privateFacl": "f",
    "gender": "male",
    "special": false,
    "faclTypeDescription": "Federal Correctional Institution",
    "hasCamp": true,
    "imageNormal": "/locations/institutions/edg/EDG_lrg.jpg",
    "imageSmall": "/locations/institutions/edg/EDG_sm.jpg",
    "hasFsl": false,
    "hasFdc": false,
    "hasSff": false,
    "hasIhp": false
}, {
    "code": "ERE",
    "name": "El Reno",
    "nameTitle": "FCI El Reno",
    "nameDisplay": "El Reno FCI",
    "complexCode": "",
    "type": "FCI",
    "securityLevel": "Medium",
    "region": "South Central Region",
    "latitude": "35.537063059389546",
    "longitude": "-98.00233840942383",
    "url": "/locations/institutions/ere/",
    "timeZone": "C",
    "address": "4205 HIGHWAY 66 WEST",
    "city": "EL RENO",
    "state": "OK",
    "zipCode": "73036",
    "phoneNumber": "405-262-4875",
    "contactEmail": "ERE-ExecAssistant@bop.gov",
    "locationtype": "inst",
    "privateFacl": "f",
    "gender": "male",
    "special": false,
    "faclTypeDescription": "Federal Correctional Institution",
    "hasCamp": true,
    "imageNormal": "/locations/institutions/ere/ERE_lrg.jpg",
    "imageSmall": "/locations/institutions/ere/ERE_sm.jpg",
    "hasFsl": false,
    "hasFdc": false,
    "hasSff": false,
    "hasIhp": false
}, {
    "code": "ELK",
    "name": "Elkton",
    "nameTitle": "FCI Elkton",
    "nameDisplay": "Elkton FCI",
    "complexCode": "",
    "type": "FCI",
    "securityLevel": "Low",
    "region": "Northeast Region",
    "latitude": "40.76804545819932",
    "longitude": "-80.7119607925415",
    "url": "/locations/institutions/elk/",
    "timeZone": "E",
    "address": "8730 SCROGGS ROAD",
    "city": "LISBON",
    "state": "OH",
    "zipCode": "44432",
    "phoneNumber": "330-420-6200",
    "contactEmail": "ELK-ExecAssistant@bop.gov",
    "locationtype": "inst",
    "privateFacl": "f",
    "gender": "male",
    "special": false,
    "faclTypeDescription": "Federal Correctional Institution",
    "hasCamp": false,
    "imageNormal": "/locations/institutions/elk/ELK_lrg.jpg",
    "imageSmall": "/locations/institutions/elk/ELK_sm.jpg",
    "hasFsl": true,
    "hasFdc": false,
    "hasSff": false,
    "hasIhp": false
}, {
    "code": "ENG",
    "name": "Englewood",
    "nameTitle": "FCI Englewood",
    "nameDisplay": "Englewood FCI",
    "complexCode": "",
    "type": "FCI",
    "securityLevel": "Low",
    "region": "North Central Region",
    "latitude": "39.63874440886546",
    "longitude": "-105.10702729225159",
    "url": "/locations/institutions/eng/",
    "timeZone": "M",
    "address": "9595 WEST QUINCY AVENUE",
    "city": "LITTLETON",
    "state": "CO",
    "zipCode": "80123",
    "phoneNumber": "303-763-4300",
    "contactEmail": "ENG-ExecAssistant@bop.gov",
    "locationtype": "inst",
    "privateFacl": "f",
    "gender": "male",
    "special": false,
    "faclTypeDescription": "Federal Correctional Institution",
    "hasCamp": true,
    "imageNormal": "/locations/institutions/eng/ENG_lrg.jpg",
    "imageSmall": "/locations/institutions/eng/ENG_sm.jpg",
    "hasFsl": false,
    "hasFdc": true,
    "hasSff": false,
    "hasIhp": false
}, {
    "code": "EST",
    "name": "Estill",
    "nameTitle": "FCI Estill",
    "nameDisplay": "Estill FCI",
    "complexCode": "",
    "type": "FCI",
    "securityLevel": "Medium",
    "region": "Southeast Region",
    "latitude": "32.71999903656538",
    "longitude": "-81.25186800956726",
    "url": "/locations/institutions/est/",
    "timeZone": "E",
    "address": "100 PRISON ROAD",
    "city": "ESTILL",
    "state": "SC",
    "zipCode": "29918",
    "phoneNumber": "803-625-4607",
    "contactEmail": "EST-ExecAssistant@bop.gov",
    "locationtype": "inst",
    "privateFacl": "f",
    "gender": "male",
    "special": false,
    "faclTypeDescription": "Federal Correctional Institution",
    "hasCamp": true,
    "imageNormal": "/locations/institutions/est/EST_lrg.jpg",
    "imageSmall": "/locations/institutions/est/EST_sm.jpg",
    "hasFsl": false,
    "hasFdc": false,
    "hasSff": false,
    "hasIhp": false
}, {
    "code": "FAI",
    "name": "Fairton",
    "nameTitle": "FCI Fairton",
    "nameDisplay": "Fairton FCI",
    "complexCode": "",
    "type": "FCI",
    "securityLevel": "Medium",
    "region": "Northeast Region",
    "latitude": "39.38979954241257",
    "longitude": "-75.15979886054993",
    "url": "/locations/institutions/fai/",
    "timeZone": "E",
    "address": "655 FAIRTON-MILLVILLE ROAD",
    "city": "FAIRTON",
    "state": "NJ",
    "zipCode": "08320",
    "phoneNumber": "856-453-1177",
    "contactEmail": "FAI-ExecAssistant@bop.gov",
    "locationtype": "inst",
    "privateFacl": "f",
    "gender": "male",
    "special": false,
    "faclTypeDescription": "Federal Correctional Institution",
    "hasCamp": true,
    "imageNormal": "/locations/institutions/fai/FAI_lrg.jpg",
    "imageSmall": "/locations/institutions/fai/FAI_sm.jpg",
    "hasFsl": false,
    "hasFdc": true,
    "hasSff": false,
    "hasIhp": false
}, {
    "code": "FLM",
    "name": "Florence  ADMAX",
    "nameTitle": "USP Florence  ADMAX",
    "nameDisplay": "Florence  ADMAX USP",
    "complexCode": "FLX",
    "type": "USP",
    "securityLevel": "Administrative",
    "region": "North Central Region",
    "latitude": "38.3614873975681",
    "longitude": "-105.10712921619415",
    "url": "/locations/institutions/flm/",
    "timeZone": "M",
    "address": "5880 HWY 67 SOUTH",
    "city": "FLORENCE",
    "state": "CO",
    "zipCode": "81226",
    "phoneNumber": "719-784-9464",
    "contactEmail": "FLX-ExecAssistant-S@bop.gov",
    "locationtype": "inst",
    "privateFacl": "f",
    "gender": "male",
    "special": false,
    "faclTypeDescription": "U.S. Penitentiary",
    "hasCamp": false,
    "imageNormal": "/locations/institutions/flm/FLM_lrg.jpg",
    "imageSmall": "/locations/institutions/flm/FLM_sm.jpg",
    "hasFsl": false,
    "hasFdc": false,
    "hasSff": false,
    "hasIhp": false
}, {
    "code": "FLP",
    "name": "Florence - High",
    "nameTitle": "USP Florence - High",
    "nameDisplay": "Florence - High USP",
    "complexCode": "FLX",
    "type": "USP",
    "securityLevel": "High",
    "region": "North Central Region",
    "latitude": "38.3614873975681",
    "longitude": "-105.10712921619415",
    "url": "/locations/institutions/flp/",
    "timeZone": "M",
    "address": "5880 HWY 67 S",
    "city": "FLORENCE",
    "state": "CO",
    "zipCode": "81226",
    "phoneNumber": "719-784-9454",
    "contactEmail": "FLX-ExecAssistant-S@bop.gov",
    "locationtype": "inst",
    "privateFacl": "f",
    "gender": "male",
    "special": false,
    "faclTypeDescription": "U.S. Penitentiary",
    "hasCamp": false,
    "imageNormal": "/locations/institutions/flp/FLP_lrg.jpg",
    "imageSmall": "/locations/institutions/flp/FLP_sm.jpg",
    "hasFsl": false,
    "hasFdc": false,
    "hasSff": false,
    "hasIhp": false
}, {
    "code": "FLX",
    "name": "Florence",
    "nameTitle": "FCC Florence",
    "nameDisplay": "Florence FCC",
    "complexCode": "FLX",
    "type": "FCC",
    "securityLevel": "N/A",
    "region": "North Central Region",
    "latitude": "38.3614873975681",
    "longitude": "-105.10712921619415",
    "url": "/locations/search.jsp?q\u003dFCC+Florence\u0026name\u003dFlorence\u0026facilityType\u003dFCC",
    "timeZone": "M",
    "address": "5880 HWY 67 S",
    "city": "FLORENCE",
    "state": "CO",
    "zipCode": "81226",
    "phoneNumber": "-1--1",
    "contactEmail": "FLX-ExecAssistant-S@bop.gov",
    "locationtype": "inst",
    "privateFacl": "f",
    "gender": "male",
    "special": false,
    "faclTypeDescription": "Federal Correctional Complex",
    "hasCamp": false,
    "imageNormal": "",
    "imageSmall": "",
    "hasFsl": false,
    "hasFdc": false,
    "hasSff": false,
    "hasIhp": false
}, {
    "code": "FLF",
    "name": "Florence",
    "nameTitle": "FCI Florence",
    "nameDisplay": "Florence FCI",
    "complexCode": "FLX",
    "type": "FCI",
    "securityLevel": "Medium",
    "region": "North Central Region",
    "latitude": "38.3614873975681",
    "longitude": "-105.10712921619415",
    "url": "/locations/institutions/flf/",
    "timeZone": "M",
    "address": "5880 HWY 67 SOUTH",
    "city": "FLORENCE",
    "state": "CO",
    "zipCode": "81226",
    "phoneNumber": "719-784-9100",
    "contactEmail": "FLX-ExecAssistant-S@bop.gov",
    "locationtype": "inst",
    "privateFacl": "f",
    "gender": "male",
    "special": false,
    "faclTypeDescription": "Federal Correctional Institution",
    "hasCamp": true,
    "imageNormal": "/locations/institutions/flf/FLF_lrg.jpg",
    "imageSmall": "/locations/institutions/flf/FLF_sm.jpg",
    "hasFsl": false,
    "hasFdc": false,
    "hasSff": false,
    "hasIhp": false
}, {
    "code": "FOR",
    "name": "Forrest City Low",
    "nameTitle": "FCI Forrest City Low",
    "nameDisplay": "Forrest City Low FCI",
    "complexCode": "FOX",
    "type": "FCI",
    "securityLevel": "Low",
    "region": "South Central Region",
    "latitude": "34.979139884580924",
    "longitude": "-90.81344962120056",
    "url": "/locations/institutions/for/",
    "timeZone": "C",
    "address": "1400 DALE BUMPERS ROAD",
    "city": "FORREST CITY",
    "state": "AR",
    "zipCode": "72335",
    "phoneNumber": "870-630-6000",
    "contactEmail": "FOR-ExecAssistant@bop.gov",
    "locationtype": "inst",
    "privateFacl": "f",
    "gender": "male",
    "special": false,
    "faclTypeDescription": "Federal Correctional Institution",
    "hasCamp": true,
    "imageNormal": "/locations/institutions/for/FOR_lrg.jpg",
    "imageSmall": "/locations/institutions/for/FOR_sm.jpg",
    "hasFsl": false,
    "hasFdc": false,
    "hasSff": false,
    "hasIhp": false
}, {
    "code": "FOM",
    "name": "Forrest City Medium",
    "nameTitle": "FCI Forrest City Medium",
    "nameDisplay": "Forrest City Medium FCI",
    "complexCode": "FOX",
    "type": "FCI",
    "securityLevel": "Medium",
    "region": "South Central Region",
    "latitude": "34.979139884580924",
    "longitude": "-90.81344962120056",
    "url": "/locations/institutions/fom/",
    "timeZone": "C",
    "address": "1400 DALE BUMPERS ROAD",
    "city": "FORREST CITY",
    "state": "AR",
    "zipCode": "72335",
    "phoneNumber": "870-494-4200",
    "contactEmail": "FOM-ExecAssistant@bop.gov",
    "locationtype": "inst",
    "privateFacl": "f",
    "gender": "male",
    "special": false,
    "faclTypeDescription": "Federal Correctional Institution",
    "hasCamp": false,
    "imageNormal": "/locations/institutions/fom/FOM_lrg.jpg",
    "imageSmall": "/locations/institutions/fom/FOM_sm.jpg",
    "hasFsl": false,
    "hasFdc": false,
    "hasSff": false,
    "hasIhp": false
}, {
    "code": "FOX",
    "name": "Forrest City",
    "nameTitle": "FCC Forrest City",
    "nameDisplay": "Forrest City FCC",
    "complexCode": "FOX",
    "type": "FCC",
    "securityLevel": "N/A",
    "region": "South Central Region",
    "latitude": "34.979139884580924",
    "longitude": "-90.81344962120056",
    "url": "/locations/search.jsp?q\u003dFCC+Forrest+City\u0026name\u003dForrest+City\u0026facilityType\u003dFCC",
    "timeZone": "C",
    "address": "1400 DALE BUMPERS ROAD",
    "city": "FORREST CITY",
    "state": "AR",
    "zipCode": "72335",
    "phoneNumber": "870-630-6000",
    "contactEmail": "",
    "locationtype": "inst",
    "privateFacl": "f",
    "gender": "male",
    "special": false,
    "faclTypeDescription": "Federal Correctional Complex",
    "hasCamp": false,
    "imageNormal": "",
    "imageSmall": "",
    "hasFsl": false,
    "hasFdc": false,
    "hasSff": false,
    "hasIhp": false
}, {
    "code": "FTD",
    "name": "Fort Dix",
    "nameTitle": "FCI Fort Dix",
    "nameDisplay": "Fort Dix FCI",
    "complexCode": "",
    "type": "FCI",
    "securityLevel": "Low",
    "region": "Northeast Region",
    "latitude": "40.00005428525468",
    "longitude": "-74.60862636566162",
    "url": "/locations/institutions/ftd/",
    "timeZone": "E",
    "address": "5756 HARTFORD \u0026",
    "city": "JOINT BASE MDL",
    "state": "NJ",
    "zipCode": "08640",
    "phoneNumber": "609-723-1100",
    "contactEmail": "FTD-ExecAssistant@bop.gov",
    "locationtype": "inst",
    "privateFacl": "f",
    "gender": "male",
    "special": false,
    "faclTypeDescription": "Federal Correctional Institution",
    "hasCamp": true,
    "imageNormal": "/locations/institutions/ftd/FTD_lrg.jpg",
    "imageSmall": "/locations/institutions/ftd/FTD_sm.jpg",
    "hasFsl": false,
    "hasFdc": false,
    "hasSff": false,
    "hasIhp": false
}, {
    "code": "FTW",
    "name": "Fort Worth",
    "nameTitle": "FMC Fort Worth",
    "nameDisplay": "Fort Worth FMC",
    "complexCode": "",
    "type": "FMC",
    "securityLevel": "Administrative",
    "region": "South Central Region",
    "latitude": "32.68028303183295",
    "longitude": "-97.28237986564636",
    "url": "/locations/institutions/ftw/",
    "timeZone": "C",
    "address": "3150 HORTON ROAD",
    "city": "FORT WORTH",
    "state": "TX",
    "zipCode": "76119",
    "phoneNumber": "817-534-8400",
    "contactEmail": "FTW-ExecAssistant@bop.gov",
    "locationtype": "inst",
    "privateFacl": "f",
    "gender": "male",
    "special": false,
    "faclTypeDescription": "Federal Medical Center",
    "hasCamp": false,
    "imageNormal": "/locations/institutions/ftw/FTW_lrg.jpg",
    "imageSmall": "/locations/institutions/ftw/FTW_sm.jpg",
    "hasFsl": false,
    "hasFdc": true,
    "hasSff": false,
    "hasIhp": false
}, {
    "code": "GIL",
    "name": "Gilmer",
    "nameTitle": "FCI Gilmer",
    "nameDisplay": "Gilmer FCI",
    "complexCode": "",
    "type": "FCI",
    "securityLevel": "Medium",
    "region": "Mid-Atlantic Region",
    "latitude": "38.922157403987896",
    "longitude": "-80.78066825866699",
    "url": "/locations/institutions/gil/",
    "timeZone": "E",
    "address": "201 FCI LANE",
    "city": "GLENVILLE",
    "state": "WV",
    "zipCode": "26351",
    "phoneNumber": "304-626-2500",
    "contactEmail": "GIL-ExecAssistant@bop.gov",
    "locationtype": "inst",
    "privateFacl": "f",
    "gender": "male",
    "special": false,
    "faclTypeDescription": "Federal Correctional Institution",
    "hasCamp": true,
    "imageNormal": "/locations/institutions/gil/GIL_lrg.jpg",
    "imageSmall": "/locations/institutions/gil/GIL_sm.jpg",
    "hasFsl": false,
    "hasFdc": false,
    "hasSff": false,
    "hasIhp": false
}, {
    "code": "GLN",
    "name": "Glynco",
    "nameTitle": "Glynco",
    "nameDisplay": "Glynco",
    "complexCode": "",
    "type": "TRN",
    "securityLevel": "N/A",
    "region": "Central Office",
    "latitude": "31.228369",
    "longitude": "-81.462842",
    "url": "/about/facilities/training_centers.jsp",
    "timeZone": "E",
    "address": "BOP BUILDING 21",
    "city": "GLYNCO",
    "state": "GA",
    "zipCode": "35124",
    "phoneNumber": "912-267-2711",
    "contactEmail": "GLN-ExecAssistant@bop.gov",
    "locationtype": "train",
    "privateFacl": "f",
    "gender": "n/a",
    "special": false,
    "faclTypeDescription": "Training Center",
    "hasCamp": false,
    "imageNormal": "",
    "imageSmall": "/locations/training_centers/STA_sm.jpg",
    "hasFsl": false,
    "hasFdc": false,
    "hasSff": false,
    "hasIhp": false
}, {
    "code": "GRA",
    "name": "Grand Prairie",
    "nameTitle": "Grand Prairie",
    "nameDisplay": "Grand Prairie",
    "complexCode": "",
    "type": "CO",
    "securityLevel": "N/A",
    "region": "Central Office",
    "latitude": "32.741985",
    "longitude": "-96.958036",
    "url": "/locations/grand_prairie/",
    "timeZone": "C",
    "address": "US ARMED FORCES RESERVE CMPL",
    "city": "GRAND PRAIRIE",
    "state": "TX",
    "zipCode": "75051",
    "phoneNumber": "972-352-4500",
    "contactEmail": "",
    "locationtype": "co",
    "privateFacl": "F",
    "gender": "n/a",
    "special": false,
    "faclTypeDescription": "Central Office",
    "hasCamp": false,
    "imageNormal": "/locations/grand_prairie/GRA_lrg.jpg",
    "imageSmall": "/locations/grand_prairie/GRA_sm.jpg",
    "hasFsl": false,
    "hasFdc": false,
    "hasSff": false,
    "hasIhp": false
}, {
    "code": "GRE",
    "name": "Greenville",
    "nameTitle": "FCI Greenville",
    "nameDisplay": "Greenville FCI",
    "complexCode": "",
    "type": "FCI",
    "securityLevel": "Medium",
    "region": "North Central Region",
    "latitude": "38.86760525803305",
    "longitude": "-89.41413044929504",
    "url": "/locations/institutions/gre/",
    "timeZone": "C",
    "address": "100 U.S. HWY 40",
    "city": "GREENVILLE",
    "state": "IL",
    "zipCode": "62246",
    "phoneNumber": "618-664-6200",
    "contactEmail": "GRE-ExecAssistant@bop.gov",
    "locationtype": "inst",
    "privateFacl": "f",
    "gender": "mixed",
    "special": false,
    "faclTypeDescription": "Federal Correctional Institution",
    "hasCamp": true,
    "imageNormal": "/locations/institutions/gre/GRE_lrg.jpg",
    "imageSmall": "/locations/institutions/gre/GRE_sm.jpg",
    "hasFsl": false,
    "hasFdc": false,
    "hasSff": false,
    "hasIhp": false
}, {
    "code": "GUA",
    "name": "Guaynabo",
    "nameTitle": "MDC Guaynabo",
    "nameDisplay": "Guaynabo MDC",
    "complexCode": "",
    "type": "MDC",
    "securityLevel": "Administrative",
    "region": "Southeast Region",
    "latitude": "18.423649287643677",
    "longitude": "-66.11253619194031",
    "url": "/locations/institutions/gua/",
    "timeZone": "A",
    "address": "652 CARRETERA 28",
    "city": "GUAYNABO",
    "state": "PR",
    "zipCode": "00965",
    "phoneNumber": "787-749-4480",
    "contactEmail": "GUA-ExecAssistant@bop.gov",
    "locationtype": "inst",
    "privateFacl": "f",
    "gender": "mixed",
    "special": false,
    "faclTypeDescription": "Metropolitan Detention Center",
    "hasCamp": false,
    "imageNormal": "/locations/institutions/gua/GUA_lrg.jpg",
    "imageSmall": "/locations/institutions/gua/GUA_sm.jpg",
    "hasFsl": false,
    "hasFdc": false,
    "hasSff": false,
    "hasIhp": false
}, {
    "code": "HAX",
    "name": "Hazelton",
    "nameTitle": "FCC Hazelton",
    "nameDisplay": "Hazelton FCC",
    "complexCode": "HAX",
    "type": "FCC",
    "securityLevel": "N/A",
    "region": "Mid-Atlantic Region",
    "latitude": "39.674229",
    "longitude": "-79.498873",
    "url": "/locations/search.jsp?q\u003dFCC+Hazelton\u0026name\u003dHazelton\u0026facilityType\u003dFCC",
    "timeZone": "E",
    "address": "SKY VIEW DRIVE",
    "city": "BRUCETON MILLS",
    "state": "WV",
    "zipCode": "26525",
    "phoneNumber": "304-379-5000",
    "contactEmail": "HAX-ExecAssistant-S@bop.gov",
    "locationtype": "inst",
    "privateFacl": "f",
    "gender": "mixed",
    "special": false,
    "faclTypeDescription": "Federal Correctional Complex",
    "hasCamp": false,
    "imageNormal": "",
    "imageSmall": "",
    "hasFsl": false,
    "hasFdc": false,
    "hasSff": false,
    "hasIhp": false
}, {
    "code": "HAF",
    "name": "Hazelton",
    "nameTitle": "FCI Hazelton",
    "nameDisplay": "Hazelton FCI",
    "complexCode": "HAX",
    "type": "FCI",
    "securityLevel": "Medium",
    "region": "Mid-Atlantic Region",
    "latitude": "39.674229",
    "longitude": "-79.498873",
    "url": "/locations/institutions/haf/",
    "timeZone": "E",
    "address": "1640 SKY VIEW DRIVE",
    "city": "BRUCETON MILLS",
    "state": "WV",
    "zipCode": "26525",
    "phoneNumber": "304-379-1500",
    "contactEmail": "HAX-ExecAssistant-S@bop.gov",
    "locationtype": "inst",
    "privateFacl": "f",
    "gender": "mixed",
    "special": false,
    "faclTypeDescription": "Federal Correctional Institution",
    "hasCamp": false,
    "imageNormal": "/locations/institutions/haf/HAF_lrg.jpg",
    "imageSmall": "/locations/institutions/haf/HAF_sm.jpg",
    "hasFsl": false,
    "hasFdc": false,
    "hasSff": true,
    "hasIhp": false
}, {
    "code": "HAZ",
    "name": "Hazelton",
    "nameTitle": "USP Hazelton",
    "nameDisplay": "Hazelton USP",
    "complexCode": "HAX",
    "type": "USP",
    "securityLevel": "High",
    "region": "Mid-Atlantic Region",
    "latitude": "39.674229",
    "longitude": "-79.498873",
    "url": "/locations/institutions/haz/",
    "timeZone": "E",
    "address": "1640 SKY VIEW DRIVE",
    "city": "BRUCETON MILLS",
    "state": "WV",
    "zipCode": "26525",
    "phoneNumber": "304-379-5000",
    "contactEmail": "HAX-ExecAssistant-S@bop.gov",
    "locationtype": "inst",
    "privateFacl": "f",
    "gender": "male",
    "special": false,
    "faclTypeDescription": "U.S. Penitentiary",
    "hasCamp": true,
    "imageNormal": "/locations/institutions/haz/HAZ_lrg.jpg",
    "imageSmall": "/locations/institutions/haz/HAZ_sm.jpg",
    "hasFsl": false,
    "hasFdc": false,
    "hasSff": false,
    "hasIhp": false
}, {
    "code": "HER",
    "name": "Herlong",
    "nameTitle": "FCI Herlong",
    "nameDisplay": "Herlong FCI",
    "complexCode": "",
    "type": "FCI",
    "securityLevel": "Medium",
    "region": "Western Region",
    "latitude": "40.14406729825646",
    "longitude": "-120.16358613967896",
    "url": "/locations/institutions/her/",
    "timeZone": "P",
    "address": "741-925 ACCESS ROAD A-25",
    "city": "HERLONG",
    "state": "CA",
    "zipCode": "96113",
    "phoneNumber": "530-827-8000",
    "contactEmail": "HER-ExecAssistant@bop.gov",
    "locationtype": "inst",
    "privateFacl": "f",
    "gender": "male",
    "special": false,
    "faclTypeDescription": "Federal Correctional Institution",
    "hasCamp": true,
    "imageNormal": "/locations/institutions/her/HER_lrg.jpg",
    "imageSmall": "/locations/institutions/her/HER_sm.jpg",
    "hasFsl": false,
    "hasFdc": false,
    "hasSff": false,
    "hasIhp": false
}, {
    "code": "HON",
    "name": "Honolulu",
    "nameTitle": "FDC Honolulu",
    "nameDisplay": "Honolulu FDC",
    "complexCode": "",
    "type": "FDC",
    "securityLevel": "Administrative",
    "region": "Western Region",
    "latitude": "21.333987785347585",
    "longitude": "-157.92874574661255",
    "url": "/locations/institutions/hon/",
    "timeZone": "H",
    "address": "351 ELLIOTT ST",
    "city": "HONOLULU",
    "state": "HI",
    "zipCode": "96819",
    "phoneNumber": "808-838-4200",
    "contactEmail": "HON-ExecAssistant@bop.gov",
    "locationtype": "inst",
    "privateFacl": "f",
    "gender": "mixed",
    "special": false,
    "faclTypeDescription": "Federal Detention Center",
    "hasCamp": false,
    "imageNormal": "/locations/institutions/hon/HON_lrg.jpg",
    "imageSmall": "/locations/institutions/hon/HON_sm.jpg",
    "hasFsl": false,
    "hasFdc": false,
    "hasSff": false,
    "hasIhp": false
}, {
    "code": "HOU",
    "name": "Houston",
    "nameTitle": "FDC Houston",
    "nameDisplay": "Houston FDC",
    "complexCode": "",
    "type": "FDC",
    "securityLevel": "Administrative",
    "region": "South Central Region",
    "latitude": "29.75869136693049",
    "longitude": "-95.36042153835297",
    "url": "/locations/institutions/hou/",
    "timeZone": "C",
    "address": "1200 TEXAS AVENUE",
    "city": "HOUSTON",
    "state": "TX",
    "zipCode": "77002",
    "phoneNumber": "713-221-5400",
    "contactEmail": "HOU-ExecAssistant@bop.gov",
    "locationtype": "inst",
    "privateFacl": "f",
    "gender": "mixed",
    "special": false,
    "faclTypeDescription": "Federal Detention Center",
    "hasCamp": false,
    "imageNormal": "/locations/institutions/hou/HOU_lrg.jpg",
    "imageSmall": "/locations/institutions/hou/HOU_sm.jpg",
    "hasFsl": false,
    "hasFdc": false,
    "hasSff": false,
    "hasIhp": false
}, {
    "code": "JES",
    "name": "Jesup",
    "nameTitle": "FCI Jesup",
    "nameDisplay": "Jesup FCI",
    "complexCode": "",
    "type": "FCI",
    "securityLevel": "Medium",
    "region": "Southeast Region",
    "latitude": "31.56110354219634",
    "longitude": "-81.89178943634033",
    "url": "/locations/institutions/jes/",
    "timeZone": "E",
    "address": "2600 HIGHWAY 301 SOUTH",
    "city": "JESUP",
    "state": "GA",
    "zipCode": "31599",
    "phoneNumber": "912-427-0870",
    "contactEmail": "JES-ExecAssistant@bop.gov",
    "locationtype": "inst",
    "privateFacl": "f",
    "gender": "male",
    "special": false,
    "faclTypeDescription": "Federal Correctional Institution",
    "hasCamp": true,
    "imageNormal": "/locations/institutions/jes/JES_lrg.jpg",
    "imageSmall": "/locations/institutions/jes/JES_sm.jpg",
    "hasFsl": true,
    "hasFdc": false,
    "hasSff": false,
    "hasIhp": false
}, {
    "code": "CKC",
    "name": "Kansas City",
    "nameTitle": "RRM Kansas City",
    "nameDisplay": "Kansas City RRM",
    "complexCode": "",
    "type": "RRM",
    "securityLevel": "N/A",
    "region": "North Central Region",
    "latitude": "39.11654316704711",
    "longitude": "-94.61968660354614",
    "url": "/locations/ccm/ckc/",
    "timeZone": "C",
    "address": "400 STATE AVE., RM 131",
    "city": "KANSAS CITY",
    "state": "KS",
    "zipCode": "66101",
    "phoneNumber": "913-551-1117",
    "contactEmail": "CKC-CCM@bop.gov",
    "locationtype": "rrm",
    "privateFacl": "f",
    "gender": "n/a",
    "special": false,
    "faclTypeDescription": "Residential Reentry Office",
    "hasCamp": false,
    "imageNormal": "",
    "imageSmall": "",
    "hasFsl": false,
    "hasFdc": false,
    "hasSff": false,
    "hasIhp": false
}, {
    "code": "LAT",
    "name": "La Tuna",
    "nameTitle": "FCI La Tuna",
    "nameDisplay": "La Tuna FCI",
    "complexCode": "",
    "type": "FCI",
    "securityLevel": "Low",
    "region": "South Central Region",
    "latitude": "31.98318108812643",
    "longitude": "-106.60508394241333",
    "url": "/locations/institutions/lat/",
    "timeZone": "C",
    "address": "8500 DONIPHAN ROAD",
    "city": "ANTHONY",
    "state": "TX",
    "zipCode": "79821",
    "phoneNumber": "915-791-9000",
    "contactEmail": "LAT-ExecAssistant@bop.gov",
    "locationtype": "inst",
    "privateFacl": "f",
    "gender": "male",
    "special": false,
    "faclTypeDescription": "Federal Correctional Institution",
    "hasCamp": true,
    "imageNormal": "/locations/institutions/lat/LAT_lrg.jpg",
    "imageSmall": "/locations/institutions/lat/LAT_sm.jpg",
    "hasFsl": false,
    "hasFdc": false,
    "hasSff": false,
    "hasIhp": true
}, {
    "code": "LVN",
    "name": "Leavenworth",
    "nameTitle": "USP Leavenworth",
    "nameDisplay": "Leavenworth USP",
    "complexCode": "",
    "type": "USP",
    "securityLevel": "Medium",
    "region": "North Central Region",
    "latitude": "39.32765014712151",
    "longitude": "-94.93635892868042",
    "url": "/locations/institutions/lvn/",
    "timeZone": "C",
    "address": "1300 METROPOLITAN",
    "city": "LEAVENWORTH",
    "state": "KS",
    "zipCode": "66048",
    "phoneNumber": "913-682-8700",
    "contactEmail": "LVN-ExecAssistant@bop.gov",
    "locationtype": "inst",
    "privateFacl": "f",
    "gender": "male",
    "special": false,
    "faclTypeDescription": "U.S. Penitentiary",
    "hasCamp": true,
    "imageNormal": "/locations/institutions/lvn/LVN_lrg.jpg",
    "imageSmall": "/locations/institutions/lvn/LVN_sm.jpg",
    "hasFsl": false,
    "hasFdc": false,
    "hasSff": false,
    "hasIhp": false
}, {
    "code": "LEE",
    "name": "Lee",
    "nameTitle": "USP Lee",
    "nameDisplay": "Lee USP",
    "complexCode": "",
    "type": "USP",
    "securityLevel": "High",
    "region": "Mid-Atlantic Region",
    "latitude": "36.70782701264506",
    "longitude": "-82.99381792545319",
    "url": "/locations/institutions/lee/",
    "timeZone": "E",
    "address": "LEE COUNTY INDUSTRIAL PARK",
    "city": "PENNINGTON GAP",
    "state": "VA",
    "zipCode": "24277",
    "phoneNumber": "276-546-0150",
    "contactEmail": "LEE-ExecAssistant@bop.gov",
    "locationtype": "inst",
    "privateFacl": "f",
    "gender": "male",
    "special": false,
    "faclTypeDescription": "U.S. Penitentiary",
    "hasCamp": true,
    "imageNormal": "/locations/institutions/lee/LEE_lrg.jpg",
    "imageSmall": "/locations/institutions/lee/LEE_sm.jpg",
    "hasFsl": false,
    "hasFdc": false,
    "hasSff": false,
    "hasIhp": false
}, {
    "code": "LEW",
    "name": "Lewisburg",
    "nameTitle": "USP Lewisburg",
    "nameDisplay": "Lewisburg USP",
    "complexCode": "",
    "type": "USP",
    "securityLevel": "Medium",
    "region": "Northeast Region",
    "latitude": "40.98107250469765",
    "longitude": "-76.91349685192108",
    "url": "/locations/institutions/lew/",
    "timeZone": "E",
    "address": "2400 ROBERT F. MILLER DRIVE",
    "city": "LEWISBURG",
    "state": "PA",
    "zipCode": "17837",
    "phoneNumber": "570-523-1251",
    "contactEmail": "LEW-ExecAssistant@bop.gov",
    "locationtype": "inst",
    "privateFacl": "f",
    "gender": "male",
    "special": false,
    "faclTypeDescription": "U.S. Penitentiary",
    "hasCamp": true,
    "imageNormal": "/locations/institutions/lew/LEW_lrg.jpg",
    "imageSmall": "/locations/institutions/lew/LEW_sm.jpg",
    "hasFsl": false,
    "hasFdc": false,
    "hasSff": false,
    "hasIhp": false
}, {
    "code": "LEX",
    "name": "Lexington",
    "nameTitle": "FMC Lexington",
    "nameDisplay": "Lexington FMC",
    "complexCode": "",
    "type": "FMC",
    "securityLevel": "Administrative",
    "region": "Mid-Atlantic Region",
    "latitude": "38.09795632354743",
    "longitude": "-84.56653118133545",
    "url": "/locations/institutions/lex/",
    "timeZone": "E",
    "address": "3301 LEESTOWN ROAD",
    "city": "LEXINGTON",
    "state": "KY",
    "zipCode": "40511",
    "phoneNumber": "859-255-6812",
    "contactEmail": "LEX-ExecAssistant@bop.gov",
    "locationtype": "inst",
    "privateFacl": "f",
    "gender": "mixed",
    "special": false,
    "faclTypeDescription": "Federal Medical Center",
    "hasCamp": true,
    "imageNormal": "/locations/institutions/lex/LEX_lrg.jpg",
    "imageSmall": "/locations/institutions/lex/LEX_sm.jpg",
    "hasFsl": false,
    "hasFdc": false,
    "hasSff": false,
    "hasIhp": false
}, {
    "code": "LOX",
    "name": "Lompoc",
    "nameTitle": "FCC Lompoc",
    "nameDisplay": "Lompoc FCC",
    "complexCode": "LOX",
    "type": "FCC",
    "securityLevel": "N/A",
    "region": "Western Region",
    "latitude": "34.6761879729352",
    "longitude": "-120.50558924674988",
    "url": "/locations/search.jsp?q\u003dFCC+Lompoc\u0026name\u003dLompoc\u0026facilityType\u003dFCC",
    "timeZone": "P",
    "address": "3901 KLEIN BLVD",
    "city": "LOMPOC",
    "state": "CA",
    "zipCode": "93436",
    "phoneNumber": "805-735-2771",
    "contactEmail": "LOX-ExecAssistant-S@bop.gov",
    "locationtype": "inst",
    "privateFacl": "f",
    "gender": "male",
    "special": false,
    "faclTypeDescription": "Federal Correctional Complex",
    "hasCamp": false,
    "imageNormal": "",
    "imageSmall": "",
    "hasFsl": false,
    "hasFdc": false,
    "hasSff": false,
    "hasIhp": false
}, {
    "code": "LOF",
    "name": "Lompoc",
    "nameTitle": "FCI Lompoc",
    "nameDisplay": "Lompoc FCI",
    "complexCode": "LOX",
    "type": "FCI",
    "securityLevel": "Low",
    "region": "Western Region",
    "latitude": "34.67752908638252",
    "longitude": "-120.49707055091858",
    "url": "/locations/institutions/lof/",
    "timeZone": "P",
    "address": "3600 GUARD ROAD",
    "city": "LOMPOC",
    "state": "CA",
    "zipCode": "93436",
    "phoneNumber": "805-736-4154",
    "contactEmail": "LOX-ExecAssistant-S@bop.gov",
    "locationtype": "inst",
    "privateFacl": "f",
    "gender": "male",
    "special": false,
    "faclTypeDescription": "Federal Correctional Institution",
    "hasCamp": false,
    "imageNormal": "/locations/institutions/lof/LOF_lrg.jpg",
    "imageSmall": "/locations/institutions/lof/LOF_sm.jpg",
    "hasFsl": false,
    "hasFdc": false,
    "hasSff": false,
    "hasIhp": false
}, {
    "code": "LOM",
    "name": "Lompoc",
    "nameTitle": "USP Lompoc",
    "nameDisplay": "Lompoc USP",
    "complexCode": "LOX",
    "type": "USP",
    "securityLevel": "Medium",
    "region": "Western Region",
    "latitude": "34.67613503380097",
    "longitude": "-120.50559997558594",
    "url": "/locations/institutions/lom/",
    "timeZone": "P",
    "address": "3901 KLEIN BLVD",
    "city": "LOMPOC",
    "state": "CA",
    "zipCode": "93436",
    "phoneNumber": "805-735-2771",
    "contactEmail": "LOX-ExecAssistant-S@bop.gov",
    "locationtype": "inst",
    "privateFacl": "f",
    "gender": "male",
    "special": false,
    "faclTypeDescription": "U.S. Penitentiary",
    "hasCamp": true,
    "imageNormal": "/locations/institutions/lom/LOM_lrg.jpg",
    "imageSmall": "/locations/institutions/lom/LOM_sm.jpg",
    "hasFsl": false,
    "hasFdc": false,
    "hasSff": false,
    "hasIhp": false
}, {
    "code": "CLB",
    "name": "Long Beach",
    "nameTitle": "RRM Long Beach",
    "nameDisplay": "Long Beach RRM",
    "complexCode": "",
    "type": "RRM",
    "securityLevel": "N/A",
    "region": "Western Region",
    "latitude": "33.7270523232909",
    "longitude": "-118.26810121536255",
    "url": "/locations/ccm/clb/",
    "timeZone": "P",
    "address": "1299 SEASIDE AVENUE",
    "city": "SAN PEDRO",
    "state": "CA",
    "zipCode": "90731",
    "phoneNumber": "310-732-5179",
    "contactEmail": "CLB-CCM@bop.gov",
    "locationtype": "rrm",
    "privateFacl": "f",
    "gender": "n/a",
    "special": false,
    "faclTypeDescription": "Residential Reentry Office",
    "hasCamp": false,
    "imageNormal": "",
    "imageSmall": "",
    "hasFsl": false,
    "hasFdc": false,
    "hasSff": false,
    "hasIhp": false
}, {
    "code": "LOR",
    "name": "Loretto",
    "nameTitle": "FCI Loretto",
    "nameDisplay": "Loretto FCI",
    "complexCode": "",
    "type": "FCI",
    "securityLevel": "Low",
    "region": "Northeast Region",
    "latitude": "40.495313768972544",
    "longitude": "-78.61657619476318",
    "url": "/locations/institutions/lor/",
    "timeZone": "E",
    "address": "772 SAINT JOSEPH ST.",
    "city": "LORETTO",
    "state": "PA",
    "zipCode": "15940",
    "phoneNumber": "814-472-4140",
    "contactEmail": "LOR-ExecAssistant-S@bop.gov",
    "locationtype": "inst",
    "privateFacl": "f",
    "gender": "male",
    "special": false,
    "faclTypeDescription": "Federal Correctional Institution",
    "hasCamp": true,
    "imageNormal": "/locations/institutions/lor/LOR_lrg.jpg",
    "imageSmall": "/locations/institutions/lor/LOR_sm.jpg",
    "hasFsl": false,
    "hasFdc": false,
    "hasSff": false,
    "hasIhp": false
}, {
    "code": "LOS",
    "name": "Los Angeles",
    "nameTitle": "MDC Los Angeles",
    "nameDisplay": "Los Angeles MDC",
    "complexCode": "",
    "type": "MDC",
    "securityLevel": "Administrative",
    "region": "Western Region",
    "latitude": "34.05352165876335",
    "longitude": "-118.23806047439575",
    "url": "/locations/institutions/los/",
    "timeZone": "P",
    "address": "535 N ALAMEDA STREET",
    "city": "LOS ANGELES",
    "state": "CA",
    "zipCode": "90012",
    "phoneNumber": "213-485-0439",
    "contactEmail": "LOS-ExecAssistant@bop.gov",
    "locationtype": "inst",
    "privateFacl": "f",
    "gender": "mixed",
    "special": false,
    "faclTypeDescription": "Metropolitan Detention Center",
    "hasCamp": false,
    "imageNormal": "/locations/institutions/los/LOS_lrg.jpg",
    "imageSmall": "/locations/institutions/los/LOS_sm.jpg",
    "hasFsl": false,
    "hasFdc": false,
    "hasSff": false,
    "hasIhp": false
}, {
    "code": "MAN",
    "name": "Manchester",
    "nameTitle": "FCI Manchester",
    "nameDisplay": "Manchester FCI",
    "complexCode": "",
    "type": "FCI",
    "securityLevel": "Medium",
    "region": "Mid-Atlantic Region",
    "latitude": "37.1808772921765",
    "longitude": "-83.78428101539612",
    "url": "/locations/institutions/man/",
    "timeZone": "E",
    "address": "805 FOX HOLLOW ROAD",
    "city": "MANCHESTER",
    "state": "KY",
    "zipCode": "40962",
    "phoneNumber": "606-598-1900",
    "contactEmail": "MAN-ExecAssistant@bop.gov",
    "locationtype": "inst",
    "privateFacl": "f",
    "gender": "male",
    "special": false,
    "faclTypeDescription": "Federal Correctional Institution",
    "hasCamp": true,
    "imageNormal": "/locations/institutions/man/MAN_lrg.jpg",
    "imageSmall": "/locations/institutions/man/MAN_sm.jpg",
    "hasFsl": false,
    "hasFdc": false,
    "hasSff": false,
    "hasIhp": false
}, {
    "code": "MNA",
    "name": "Marianna",
    "nameTitle": "FCI Marianna",
    "nameDisplay": "Marianna FCI",
    "complexCode": "",
    "type": "FCI",
    "securityLevel": "Medium",
    "region": "Southeast Region",
    "latitude": "30.812283043070753",
    "longitude": "-85.18894046545029",
    "url": "/locations/institutions/mna/",
    "timeZone": "E",
    "address": "3625 FCI ROAD",
    "city": "MARIANNA",
    "state": "FL",
    "zipCode": "32446",
    "phoneNumber": "850-526-2313",
    "contactEmail": "MNA-ExecAssistant@bop.gov",
    "locationtype": "inst",
    "privateFacl": "f",
    "gender": "mixed",
    "special": false,
    "faclTypeDescription": "Federal Correctional Institution",
    "hasCamp": true,
    "imageNormal": "/locations/institutions/mna/MNA_lrg.jpg",
    "imageSmall": "/locations/institutions/mna/MNA_sm.jpg",
    "hasFsl": false,
    "hasFdc": false,
    "hasSff": false,
    "hasIhp": false
}, {
    "code": "MAR",
    "name": "Marion",
    "nameTitle": "USP Marion",
    "nameDisplay": "Marion USP",
    "complexCode": "",
    "type": "USP",
    "securityLevel": "Medium",
    "region": "North Central Region",
    "latitude": "37.66132489364545",
    "longitude": "-88.98763239383698",
    "url": "/locations/institutions/mar/",
    "timeZone": "C",
    "address": "4500 PRISON ROAD",
    "city": "MARION",
    "state": "IL",
    "zipCode": "62959",
    "phoneNumber": "618-964-1441",
    "contactEmail": "MAR-ExecAssistant@bop.gov",
    "locationtype": "inst",
    "privateFacl": "f",
    "gender": "male",
    "special": false,
    "faclTypeDescription": "U.S. Penitentiary",
    "hasCamp": true,
    "imageNormal": "/locations/institutions/mar/MAR_lrg.jpg",
    "imageSmall": "/locations/institutions/mar/MAR_sm.jpg",
    "hasFsl": false,
    "hasFdc": false,
    "hasSff": false,
    "hasIhp": false
}, {
    "code": "MCR",
    "name": "McCreary",
    "nameTitle": "USP McCreary",
    "nameDisplay": "McCreary USP",
    "complexCode": "",
    "type": "USP",
    "securityLevel": "High",
    "region": "Mid-Atlantic Region",
    "latitude": "36.6857315434324",
    "longitude": "-84.39077138900757",
    "url": "/locations/institutions/mcr/",
    "timeZone": "E",
    "address": "330 FEDERAL WAY",
    "city": "PINE KNOT",
    "state": "KY",
    "zipCode": "42635",
    "phoneNumber": "606-354-7000",
    "contactEmail": "MCR-ExecAssistant@bop.gov",
    "locationtype": "inst",
    "privateFacl": "f",
    "gender": "male",
    "special": false,
    "faclTypeDescription": "U.S. Penitentiary",
    "hasCamp": true,
    "imageNormal": "/locations/institutions/mcr/MCR_lrg.jpg",
    "imageSmall": "/locations/institutions/mcr/MCR_sm.jpg",
    "hasFsl": false,
    "hasFdc": false,
    "hasSff": false,
    "hasIhp": false
}, {
    "code": "MCD",
    "name": "McDowell",
    "nameTitle": "FCI McDowell",
    "nameDisplay": "McDowell FCI",
    "complexCode": "",
    "type": "FCI",
    "securityLevel": "Medium",
    "region": "Mid-Atlantic Region",
    "latitude": "37.47926852959168",
    "longitude": "-81.55574083328247",
    "url": "/locations/institutions/mcd/",
    "timeZone": "E",
    "address": "101 FEDERAL DRIVE",
    "city": "WELCH",
    "state": "WV",
    "zipCode": "24801",
    "phoneNumber": "304-436-7300",
    "contactEmail": "MCD-ExecAssistant@bop.gov",
    "locationtype": "inst",
    "privateFacl": "f",
    "gender": "male",
    "special": false,
    "faclTypeDescription": "Federal Correctional Institution",
    "hasCamp": true,
    "imageNormal": "/locations/institutions/mcd/MCD_lrg.jpg",
    "imageSmall": "/locations/institutions/mcd/MCD_sm.jpg",
    "hasFsl": false,
    "hasFdc": false,
    "hasSff": false,
    "hasIhp": false
}, {
    "code": "MCK",
    "name": "McKean",
    "nameTitle": "FCI McKean",
    "nameDisplay": "McKean FCI",
    "complexCode": "",
    "type": "FCI",
    "securityLevel": "Medium",
    "region": "Northeast Region",
    "latitude": "41.796124056544855",
    "longitude": "-78.69246125221252",
    "url": "/locations/institutions/mck/",
    "timeZone": "E",
    "address": "6975 ROUTE 59",
    "city": "LEWIS RUN",
    "state": "PA",
    "zipCode": "16738",
    "phoneNumber": "814-362-8900",
    "contactEmail": "MCK-ExecAssistant@bop.gov",
    "locationtype": "inst",
    "privateFacl": "f",
    "gender": "male",
    "special": false,
    "faclTypeDescription": "Federal Correctional Institution",
    "hasCamp": true,
    "imageNormal": "/locations/institutions/mck/MCK_lrg.jpg",
    "imageSmall": "/locations/institutions/mck/MCK_sm.jpg",
    "hasFsl": false,
    "hasFdc": false,
    "hasSff": false,
    "hasIhp": false
}, {
    "code": "MCA",
    "name": "McRae",
    "nameTitle": "CI McRae",
    "nameDisplay": "McRae CI",
    "complexCode": "",
    "type": "CI",
    "securityLevel": "Low",
    "region": "Southeast Region",
    "latitude": "32.05896837764688",
    "longitude": "-82.87750124931335",
    "url": "/locations/ci/mca/",
    "timeZone": "E",
    "address": "112 JIM HAMMOCK DRIVE",
    "city": "MCRAE HELENA",
    "state": "GA",
    "zipCode": "31055",
    "phoneNumber": "229-868-7778",
    "contactEmail": "MCA-General@bop.gov",
    "locationtype": "inst",
    "privateFacl": "t",
    "gender": "male",
    "special": false,
    "faclTypeDescription": "Correctional Institution",
    "hasCamp": false,
    "imageNormal": "",
    "imageSmall": "",
    "hasFsl": false,
    "hasFdc": false,
    "hasSff": false,
    "hasIhp": false
}, {
    "code": "MEM",
    "name": "Memphis",
    "nameTitle": "FCI Memphis",
    "nameDisplay": "Memphis FCI",
    "complexCode": "",
    "type": "FCI",
    "securityLevel": "Medium",
    "region": "Mid-Atlantic Region",
    "latitude": "35.155301850272586",
    "longitude": "-89.86424267292023",
    "url": "/locations/institutions/mem/",
    "timeZone": "C",
    "address": "1101 JOHN A DENIE ROAD",
    "city": "MEMPHIS",
    "state": "TN",
    "zipCode": "38134",
    "phoneNumber": "901-372-2269",
    "contactEmail": "MEM-ExecAssistant@bop.gov",
    "locationtype": "inst",
    "privateFacl": "f",
    "gender": "male",
    "special": false,
    "faclTypeDescription": "Federal Correctional Institution",
    "hasCamp": true,
    "imageNormal": "/locations/institutions/mem/MEM_lrg.jpg",
    "imageSmall": "/locations/institutions/mem/MEM_sm.jpg",
    "hasFsl": false,
    "hasFdc": true,
    "hasSff": false,
    "hasIhp": false
}, {
    "code": "MEN",
    "name": "Mendota",
    "nameTitle": "FCI Mendota",
    "nameDisplay": "Mendota FCI",
    "complexCode": "",
    "type": "FCI",
    "securityLevel": "Medium",
    "region": "Western Region",
    "latitude": "36.73076525449928",
    "longitude": "-120.39236515760422",
    "url": "/locations/institutions/men/",
    "timeZone": "P",
    "address": "33500 WEST CALIFORNIA AVENUE",
    "city": "MENDOTA",
    "state": "CA",
    "zipCode": "93640",
    "phoneNumber": "559-274-4000",
    "contactEmail": "MEN-ExecAssistant@bop.gov",
    "locationtype": "inst",
    "privateFacl": "f",
    "gender": "male",
    "special": false,
    "faclTypeDescription": "Federal Correctional Institution",
    "hasCamp": true,
    "imageNormal": "/locations/institutions/men/MEN_lrg.jpg",
    "imageSmall": "/locations/institutions/men/MEN_sm.jpg",
    "hasFsl": false,
    "hasFdc": false,
    "hasSff": false,
    "hasIhp": false
}, {
    "code": "MIA",
    "name": "Miami",
    "nameTitle": "FCI Miami",
    "nameDisplay": "Miami FCI",
    "complexCode": "",
    "type": "FCI",
    "securityLevel": "Low",
    "region": "Southeast Region",
    "latitude": "25.616883771255377",
    "longitude": "-80.41434556245804",
    "url": "/locations/institutions/mia/",
    "timeZone": "E",
    "address": "15801 S.W. 137TH AVENUE",
    "city": "MIAMI",
    "state": "FL",
    "zipCode": "33177",
    "phoneNumber": "305-259-2100",
    "contactEmail": "MIA-ExecAssistant@bop.gov",
    "locationtype": "inst",
    "privateFacl": "f",
    "gender": "male",
    "special": false,
    "faclTypeDescription": "Federal Correctional Institution",
    "hasCamp": true,
    "imageNormal": "/locations/institutions/mia/MIA_lrg.jpg",
    "imageSmall": "/locations/institutions/mia/MIA_sm.jpg",
    "hasFsl": false,
    "hasFdc": false,
    "hasSff": false,
    "hasIhp": false
}, {
    "code": "MIM",
    "name": "Miami",
    "nameTitle": "FDC Miami",
    "nameDisplay": "Miami FDC",
    "complexCode": "",
    "type": "FDC",
    "securityLevel": "Administrative",
    "region": "Southeast Region",
    "latitude": "25.778017910255254",
    "longitude": "-80.19311964511871",
    "url": "/locations/institutions/mim/",
    "timeZone": "E",
    "address": "33 NE 4TH STREET",
    "city": "MIAMI",
    "state": "FL",
    "zipCode": "33132",
    "phoneNumber": "305-577-0010",
    "contactEmail": "MIM-ExecAssistant@bop.gov",
    "locationtype": "inst",
    "privateFacl": "f",
    "gender": "mixed",
    "special": false,
    "faclTypeDescription": "Federal Detention Center",
    "hasCamp": false,
    "imageNormal": "/locations/institutions/mim/MIM_lrg.jpg",
    "imageSmall": "/locations/institutions/mim/MIM_sm.jpg",
    "hasFsl": false,
    "hasFdc": false,
    "hasSff": false,
    "hasIhp": false
}, {
    "code": "CMM",
    "name": "Miami",
    "nameTitle": "RRM Miami",
    "nameDisplay": "Miami RRM",
    "complexCode": "",
    "type": "RRM",
    "securityLevel": "N/A",
    "region": "Southeast Region",
    "latitude": "25.778068631351726",
    "longitude": "-80.19376873970032",
    "url": "/locations/ccm/cmm",
    "timeZone": "E",
    "address": "401 N MIAMI AVENUE",
    "city": "MIAMI",
    "state": "FL",
    "zipCode": "33128",
    "phoneNumber": "305-982-1181",
    "contactEmail": "CMM-CCM@bop.gov",
    "locationtype": "rrm",
    "privateFacl": "f",
    "gender": "n/a",
    "special": false,
    "faclTypeDescription": "Residential Reentry Office",
    "hasCamp": false,
    "imageNormal": "",
    "imageSmall": "",
    "hasFsl": false,
    "hasFdc": false,
    "hasSff": false,
    "hasIhp": false
}, {
    "code": "MXR",
    "name": "Mid-Atlantic",
    "nameTitle": "RO Mid-Atlantic",
    "nameDisplay": "Mid-Atlantic RO",
    "complexCode": "",
    "type": "RO",
    "securityLevel": "N/A",
    "region": "Mid-Atlantic Region",
    "latitude": "39.12027227440838",
    "longitude": "-76.77684903144836",
    "url": "/locations/regional_offices/mxro/",
    "timeZone": "E",
    "address": "302 SENTINEL DRIVE",
    "city": "ANNAPOLIS JUNCT",
    "state": "MD",
    "zipCode": "20701",
    "phoneNumber": "301-317-3100",
    "contactEmail": "MXRO-ExecAssistant@bop.gov",
    "locationtype": "ro",
    "privateFacl": "f",
    "gender": "n/a",
    "special": false,
    "faclTypeDescription": "Regional Office",
    "hasCamp": false,
    "imageNormal": "/locations/regional_offices/mxro/MXRO_lrg.jpg",
    "imageSmall": "/locations/regional_offices/mxro/MXRO_sm.jpg",
    "hasFsl": false,
    "hasFdc": false,
    "hasSff": false,
    "hasIhp": false
}, {
    "code": "MIL",
    "name": "Milan",
    "nameTitle": "FCI Milan",
    "nameDisplay": "Milan FCI",
    "complexCode": "",
    "type": "FCI",
    "securityLevel": "Low",
    "region": "North Central Region",
    "latitude": "42.098914993554835",
    "longitude": "-83.66956830024719",
    "url": "/locations/institutions/mil/",
    "timeZone": "E",
    "address": "4004 EAST ARKONA ROAD",
    "city": "MILAN",
    "state": "MI",
    "zipCode": "48160",
    "phoneNumber": "734-439-1511",
    "contactEmail": "MIL-ExecAssistant@bop.gov",
    "locationtype": "inst",
    "privateFacl": "f",
    "gender": "male",
    "special": false,
    "faclTypeDescription": "Federal Correctional Institution",
    "hasCamp": false,
    "imageNormal": "/locations/institutions/mil/MIL_lrg.jpg",
    "imageSmall": "/locations/institutions/mil/MIL_sm.jpg",
    "hasFsl": false,
    "hasFdc": true,
    "hasSff": false,
    "hasIhp": false
}, {
    "code": "CMS",
    "name": "Minneapolis",
    "nameTitle": "RRM Minneapolis",
    "nameDisplay": "Minneapolis RRM",
    "complexCode": "",
    "type": "RRM",
    "securityLevel": "N/A",
    "region": "North Central Region",
    "latitude": "44.97805044643724",
    "longitude": "-93.26568603515625",
    "url": "/locations/ccm/cms/",
    "timeZone": "C",
    "address": "300 SOUTH 4TH ST, SUITE 1210",
    "city": "MINNEAPOLIS",
    "state": "MN",
    "zipCode": "55415",
    "phoneNumber": "612-332-5030",
    "contactEmail": "CMS-CCM@bop.gov",
    "locationtype": "rrm",
    "privateFacl": "f",
    "gender": "n/a",
    "special": false,
    "faclTypeDescription": "Residential Reentry Office",
    "hasCamp": false,
    "imageNormal": "",
    "imageSmall": "",
    "hasFsl": false,
    "hasFdc": false,
    "hasSff": false,
    "hasIhp": false
}, {
    "code": "MON",
    "name": "Montgomery",
    "nameTitle": "FPC Montgomery",
    "nameDisplay": "Montgomery FPC",
    "complexCode": "",
    "type": "FPC",
    "securityLevel": "Minimum",
    "region": "Southeast Region",
    "latitude": "32.3920136112194",
    "longitude": "-86.35764867067337",
    "url": "/locations/institutions/mon/",
    "timeZone": "C",
    "address": "MAXWELL AIR FORCE BASE",
    "city": "MONTGOMERY",
    "state": "AL",
    "zipCode": "36112",
    "phoneNumber": "334-293-2100",
    "contactEmail": "MON-ExecAssistant@bop.gov",
    "locationtype": "inst",
    "privateFacl": "f",
    "gender": "male",
    "special": false,
    "faclTypeDescription": "Federal Prison Camp",
    "hasCamp": false,
    "imageNormal": "/locations/institutions/mon/MON_lrg.jpg",
    "imageSmall": "/locations/institutions/mon/MON_sm.jpg",
    "hasFsl": false,
    "hasFdc": false,
    "hasSff": false,
    "hasIhp": false
}, {
    "code": "CMY",
    "name": "Montgomery",
    "nameTitle": "RRM Montgomery",
    "nameDisplay": "Montgomery RRM",
    "complexCode": "",
    "type": "RRM",
    "securityLevel": "N/A",
    "region": "Southeast Region",
    "latitude": "32.39196604905696",
    "longitude": "-86.35588645935059",
    "url": "/locations/ccm/cmy",
    "timeZone": "C",
    "address": "MAXWELL AFB, BLDG 1209",
    "city": "MONTGOMERY",
    "state": "AL",
    "zipCode": "36112",
    "phoneNumber": "334-293-2360",
    "contactEmail": "CMY-CCM@bop.gov",
    "locationtype": "rrm",
    "privateFacl": "f",
    "gender": "n/a",
    "special": false,
    "faclTypeDescription": "Residential Reentry Office",
    "hasCamp": false,
    "imageNormal": "",
    "imageSmall": "",
    "hasFsl": false,
    "hasFdc": false,
    "hasSff": false,
    "hasIhp": false
}, {
    "code": "MRG",
    "name": "Morgantown",
    "nameTitle": "FCI Morgantown",
    "nameDisplay": "Morgantown FCI",
    "complexCode": "",
    "type": "FCI",
    "securityLevel": "Minimum",
    "region": "Mid-Atlantic Region",
    "latitude": "39.60530793983782",
    "longitude": "-79.95054602622986",
    "url": "/locations/institutions/mrg/",
    "timeZone": "E",
    "address": "446 GREENBAG ROAD, ROUTE 857",
    "city": "MORGANTOWN",
    "state": "WV",
    "zipCode": "26501",
    "phoneNumber": "304-296-4416",
    "contactEmail": "MRG-ExecAssistant@bop.gov",
    "locationtype": "inst",
    "privateFacl": "f",
    "gender": "male",
    "special": false,
    "faclTypeDescription": "Federal Correctional Institution",
    "hasCamp": false,
    "imageNormal": "/locations/institutions/mrg/MRG_lrg.jpg",
    "imageSmall": "/locations/institutions/mrg/MRG_sm.jpg",
    "hasFsl": false,
    "hasFdc": false,
    "hasSff": false,
    "hasIhp": false
}, {
    "code": "DET",
    "name": "MSTC",
    "nameTitle": "MSTC",
    "nameDisplay": "MSTC",
    "complexCode": "",
    "type": "TRN",
    "securityLevel": "N/A",
    "region": "Central Office",
    "latitude": "39.66107",
    "longitude": "-104.849813",
    "url": "/about/facilities/training_centers.jsp",
    "timeZone": "M",
    "address": "11900 E. CORNELL AVE",
    "city": "AURORA",
    "state": "CO",
    "zipCode": "80014",
    "phoneNumber": "303-340-7800",
    "contactEmail": "DET-ExecAssistant@bop.gov",
    "locationtype": "train",
    "privateFacl": "f",
    "gender": "n/a",
    "special": false,
    "faclTypeDescription": "Training Center",
    "hasCamp": false,
    "imageNormal": "",
    "imageSmall": "/locations/training_centers/MSTC_sm.jpg",
    "hasFsl": false,
    "hasFdc": false,
    "hasSff": false,
    "hasIhp": false
}, {
    "code": "CNV",
    "name": "Nashville",
    "nameTitle": "RRM Nashville",
    "nameDisplay": "Nashville RRM",
    "complexCode": "",
    "type": "RRM",
    "securityLevel": "N/A",
    "region": "Mid-Atlantic Region",
    "latitude": "36.15833785894452",
    "longitude": "-86.78255081176758",
    "url": "/locations/ccm/cnv/",
    "timeZone": "C",
    "address": "701 BROADWAY ST, SUITE 124",
    "city": "NASHVILLE",
    "state": "TN",
    "zipCode": "37203",
    "phoneNumber": "615-736-5148",
    "contactEmail": "CNV-CCM@bop.gov",
    "locationtype": "rrm",
    "privateFacl": "f",
    "gender": "n/a",
    "special": false,
    "faclTypeDescription": "Residential Reentry Office",
    "hasCamp": false,
    "imageNormal": "",
    "imageSmall": "",
    "hasFsl": false,
    "hasFdc": false,
    "hasSff": false,
    "hasIhp": false
}, {
    "code": "NYM",
    "name": "New York",
    "nameTitle": "MCC New York",
    "nameDisplay": "New York MCC",
    "complexCode": "",
    "type": "MCC",
    "securityLevel": "Administrative",
    "region": "Northeast Region",
    "latitude": "40.71301045194647",
    "longitude": "-74.00105774402618",
    "url": "/locations/institutions/nym/",
    "timeZone": "E",
    "address": "150 PARK ROW",
    "city": "NEW YORK",
    "state": "NY",
    "zipCode": "10007",
    "phoneNumber": "646-836-6300",
    "contactEmail": "NYM-ExecAssistant@bop.gov",
    "locationtype": "inst",
    "privateFacl": "f",
    "gender": "male",
    "special": false,
    "faclTypeDescription": "Metropolitan Correctional Center",
    "hasCamp": false,
    "imageNormal": "/locations/institutions/nym/NYM_lrg.jpg",
    "imageSmall": "/locations/institutions/nym/NYM_sm.jpg",
    "hasFsl": false,
    "hasFdc": false,
    "hasSff": false,
    "hasIhp": false
}, {
    "code": "CNK",
    "name": "New York",
    "nameTitle": "RRM New York",
    "nameDisplay": "New York RRM",
    "complexCode": "",
    "type": "RRM",
    "securityLevel": "N/A",
    "region": "Northeast Region",
    "latitude": "40.65988732637896",
    "longitude": "-74.00301575660706",
    "url": "/locations/ccm/cnk/",
    "timeZone": "E",
    "address": "100 29TH STREET",
    "city": "BROOKLYN",
    "state": "NY",
    "zipCode": "11232",
    "phoneNumber": "718-840-4219",
    "contactEmail": "CNK-CCM@bop.gov",
    "locationtype": "rrm",
    "privateFacl": "f",
    "gender": "n/a",
    "special": false,
    "faclTypeDescription": "Residential Reentry Office",
    "hasCamp": false,
    "imageNormal": "",
    "imageSmall": "",
    "hasFsl": false,
    "hasFdc": false,
    "hasSff": false,
    "hasIhp": false
}, {
    "code": "NCR",
    "name": "North Central",
    "nameTitle": "RO North Central",
    "nameDisplay": "North Central RO",
    "complexCode": "",
    "type": "RO",
    "securityLevel": "N/A",
    "region": "North Central Region",
    "latitude": "39.11654316704711",
    "longitude": "-94.61905896663666",
    "url": "/locations/regional_offices/ncro/",
    "timeZone": "C",
    "address": "400 STATE AVENUE, SUITE 800",
    "city": "KANSAS CITY",
    "state": "KS",
    "zipCode": "66101",
    "phoneNumber": "913-621-3939",
    "contactEmail": "NCRO-ExecAssistant@bop.gov",
    "locationtype": "ro",
    "privateFacl": "f",
    "gender": "n/a",
    "special": false,
    "faclTypeDescription": "Regional Office",
    "hasCamp": false,
    "imageNormal": "/locations/regional_offices/ncro/NCRO_lrg.jpg",
    "imageSmall": "/locations/regional_offices/ncro/NCRO_sm.jpg",
    "hasFsl": false,
    "hasFdc": false,
    "hasSff": false,
    "hasIhp": false
}, {
    "code": "NER",
    "name": "Northeast",
    "nameTitle": "RO Northeast",
    "nameDisplay": "Northeast RO",
    "complexCode": "",
    "type": "RO",
    "securityLevel": "N/A",
    "region": "Northeast Region",
    "latitude": "39.94845387536164",
    "longitude": "-75.14467120170593",
    "url": "/locations/regional_offices/nero/",
    "timeZone": "E",
    "address": "U.S. CUSTOM HOUSE, 7TH FLOOR",
    "city": "PHILADELPHIA",
    "state": "PA",
    "zipCode": "19106",
    "phoneNumber": "215-521-7301",
    "contactEmail": "NERO-ExecAssistant@bop.gov",
    "locationtype": "ro",
    "privateFacl": "f",
    "gender": "n/a",
    "special": false,
    "faclTypeDescription": "Regional Office",
    "hasCamp": false,
    "imageNormal": "/locations/regional_offices/nero/NERO_lrg.jpg",
    "imageSmall": "/locations/regional_offices/nero/NERO_sm.jpg",
    "hasFsl": false,
    "hasFdc": false,
    "hasSff": false,
    "hasIhp": false
}, {
    "code": "OAK",
    "name": "Oakdale I",
    "nameTitle": "FCI Oakdale I",
    "nameDisplay": "Oakdale I FCI",
    "complexCode": "OAX",
    "type": "FCI",
    "securityLevel": "Low",
    "region": "South Central Region",
    "latitude": "30.832138156154823",
    "longitude": "-92.64348328113556",
    "url": "/locations/institutions/oak/",
    "timeZone": "C",
    "address": "1507 EAST WHATLEY ROAD",
    "city": "OAKDALE",
    "state": "LA",
    "zipCode": "71463",
    "phoneNumber": "318-335-4070",
    "contactEmail": "OAK-ExecAssistant@bop.gov",
    "locationtype": "inst",
    "privateFacl": "f",
    "gender": "male",
    "special": false,
    "faclTypeDescription": "Federal Correctional Institution",
    "hasCamp": false,
    "imageNormal": "/locations/institutions/oak/OAK_lrg.jpg",
    "imageSmall": "/locations/institutions/oak/OAK_sm.jpg",
    "hasFsl": false,
    "hasFdc": false,
    "hasSff": false,
    "hasIhp": false
}, {
    "code": "OAD",
    "name": "Oakdale II",
    "nameTitle": "FCI Oakdale II",
    "nameDisplay": "Oakdale II FCI",
    "complexCode": "OAX",
    "type": "FCI",
    "securityLevel": "Low",
    "region": "South Central Region",
    "latitude": "30.832138156154823",
    "longitude": "-92.64348328113556",
    "url": "/locations/institutions/oad/",
    "timeZone": "C",
    "address": "2105 EAST WHATLEY ROAD",
    "city": "OAKDALE",
    "state": "LA",
    "zipCode": "71463",
    "phoneNumber": "318-335-4466",
    "contactEmail": "OAD-ExecAssistant@bop.gov",
    "locationtype": "inst",
    "privateFacl": "f",
    "gender": "male",
    "special": false,
    "faclTypeDescription": "Federal Correctional Institution",
    "hasCamp": true,
    "imageNormal": "/locations/institutions/oad/OAD_lrg.jpg",
    "imageSmall": "/locations/institutions/oad/OAD_sm.jpg",
    "hasFsl": false,
    "hasFdc": false,
    "hasSff": false,
    "hasIhp": true
}, {
    "code": "OAX",
    "name": "Oakdale",
    "nameTitle": "FCC Oakdale",
    "nameDisplay": "Oakdale FCC",
    "complexCode": "OAX",
    "type": "FCC",
    "securityLevel": "N/A",
    "region": "South Central Region",
    "latitude": "30.832138156154823",
    "longitude": "-92.64348328113556",
    "url": "/locations/search.jsp?q\u003dFCC+Oakdale\u0026name\u003dOakdale\u0026facilityType\u003dFCC",
    "timeZone": "C",
    "address": "P.O. BOX 5050",
    "city": "OAKDALE",
    "state": "LA",
    "zipCode": "71463",
    "phoneNumber": "-1--1",
    "contactEmail": "",
    "locationtype": "inst",
    "privateFacl": "f",
    "gender": "male",
    "special": false,
    "faclTypeDescription": "Federal Correctional Complex",
    "hasCamp": false,
    "imageNormal": "",
    "imageSmall": "",
    "hasFsl": false,
    "hasFdc": false,
    "hasSff": false,
    "hasIhp": false
}, {
    "code": "OKL",
    "name": "Oklahoma City",
    "nameTitle": "FTC Oklahoma City",
    "nameDisplay": "Oklahoma City FTC",
    "complexCode": "",
    "type": "FTC",
    "securityLevel": "Administrative",
    "region": "South Central Region",
    "latitude": "35.39205872746594",
    "longitude": "-97.61861085891724",
    "url": "/locations/institutions/okl/",
    "timeZone": "C",
    "address": "7410 S. MACARTHUR BLVD",
    "city": "OKLAHOMA CITY",
    "state": "OK",
    "zipCode": "73169",
    "phoneNumber": "405-682-4075",
    "contactEmail": "OKL-ExecAssistant@bop.gov",
    "locationtype": "inst",
    "privateFacl": "f",
    "gender": "mixed",
    "special": false,
    "faclTypeDescription": "Federal Transfer Center",
    "hasCamp": false,
    "imageNormal": "/locations/institutions/okl/OKL_lrg.jpg",
    "imageSmall": "/locations/institutions/okl/OKL_sm.jpg",
    "hasFsl": false,
    "hasFdc": false,
    "hasSff": false,
    "hasIhp": false
}, {
    "code": "COR",
    "name": "Orlando",
    "nameTitle": "RRM Orlando",
    "nameDisplay": "Orlando RRM",
    "complexCode": "",
    "type": "RRM",
    "securityLevel": "N/A",
    "region": "Southeast Region",
    "latitude": "28.75962721130452",
    "longitude": "-82.00122356414795",
    "url": "/locations/ccm/cor/",
    "timeZone": "E",
    "address": "6303 COUNTY ROAD 500",
    "city": "WILDWOOD",
    "state": "FL",
    "zipCode": "34785",
    "phoneNumber": "352-689-7390",
    "contactEmail": "COR-CCM@bop.gov",
    "locationtype": "rrm",
    "privateFacl": "f",
    "gender": "n/a",
    "special": false,
    "faclTypeDescription": "Residential Reentry Office",
    "hasCamp": false,
    "imageNormal": "",
    "imageSmall": "",
    "hasFsl": false,
    "hasFdc": false,
    "hasSff": false,
    "hasIhp": false
}, {
    "code": "OTV",
    "name": "Otisville",
    "nameTitle": "FCI Otisville",
    "nameDisplay": "Otisville FCI",
    "complexCode": "",
    "type": "FCI",
    "securityLevel": "Medium",
    "region": "Northeast Region",
    "latitude": "41.476777534148226",
    "longitude": "-74.53333675861359",
    "url": "/locations/institutions/otv/",
    "timeZone": "E",
    "address": "TWO MILE DRIVE",
    "city": "OTISVILLE",
    "state": "NY",
    "zipCode": "10963",
    "phoneNumber": "845-386-6700",
    "contactEmail": "OTV-ExecAssistant@bop.gov",
    "locationtype": "inst",
    "privateFacl": "f",
    "gender": "male",
    "special": false,
    "faclTypeDescription": "Federal Correctional Institution",
    "hasCamp": true,
    "imageNormal": "/locations/institutions/otv/OTV_lrg.jpg",
    "imageSmall": "/locations/institutions/otv/OTV_sm.jpg",
    "hasFsl": false,
    "hasFdc": true,
    "hasSff": false,
    "hasIhp": false
}, {
    "code": "OXF",
    "name": "Oxford",
    "nameTitle": "FCI Oxford",
    "nameDisplay": "Oxford FCI",
    "complexCode": "",
    "type": "FCI",
    "securityLevel": "Medium",
    "region": "North Central Region",
    "latitude": "43.86168895704511",
    "longitude": "-89.64906513690948",
    "url": "/locations/institutions/oxf/",
    "timeZone": "C",
    "address": "COUNTY ROAD G \u0026 ELK AVENUE",
    "city": "OXFORD",
    "state": "WI",
    "zipCode": "53952",
    "phoneNumber": "608-584-5511",
    "contactEmail": "OXF-ExecAssistant@bop.gov",
    "locationtype": "inst",
    "privateFacl": "f",
    "gender": "male",
    "special": false,
    "faclTypeDescription": "Federal Correctional Institution",
    "hasCamp": true,
    "imageNormal": "/locations/institutions/oxf/OXF_lrg.jpg",
    "imageSmall": "/locations/institutions/oxf/OXF_sm.jpg",
    "hasFsl": false,
    "hasFdc": false,
    "hasSff": false,
    "hasIhp": false
}, {
    "code": "PEK",
    "name": "Pekin",
    "nameTitle": "FCI Pekin",
    "nameDisplay": "Pekin FCI",
    "complexCode": "",
    "type": "FCI",
    "securityLevel": "Medium",
    "region": "North Central Region",
    "latitude": "40.538068780531134",
    "longitude": "-89.66444492340088",
    "url": "/locations/institutions/pek/",
    "timeZone": "C",
    "address": "2600 S. SECOND ST.",
    "city": "PEKIN",
    "state": "IL",
    "zipCode": "61554",
    "phoneNumber": "309-346-8588",
    "contactEmail": "PEK-ExecAssistant@bop.gov",
    "locationtype": "inst",
    "privateFacl": "f",
    "gender": "mixed",
    "special": false,
    "faclTypeDescription": "Federal Correctional Institution",
    "hasCamp": true,
    "imageNormal": "/locations/institutions/pek/PEK_lrg.jpg",
    "imageSmall": "/locations/institutions/pek/PEK_sm.jpg",
    "hasFsl": false,
    "hasFdc": false,
    "hasSff": false,
    "hasIhp": false
}, {
    "code": "PEN",
    "name": "Pensacola",
    "nameTitle": "FPC Pensacola",
    "nameDisplay": "Pensacola FPC",
    "complexCode": "",
    "type": "FPC",
    "securityLevel": "Minimum",
    "region": "Southeast Region",
    "latitude": "30.463596043879626",
    "longitude": "-87.34315931797028",
    "url": "/locations/institutions/pen/",
    "timeZone": "E",
    "address": "110 RABY AVE",
    "city": "PENSACOLA",
    "state": "FL",
    "zipCode": "32509",
    "phoneNumber": "850-457-1911",
    "contactEmail": "PEN-ExecAssistant@bop.gov",
    "locationtype": "inst",
    "privateFacl": "f",
    "gender": "male",
    "special": false,
    "faclTypeDescription": "Federal Prison Camp",
    "hasCamp": false,
    "imageNormal": "/locations/institutions/pen/PEN_lrg.jpg",
    "imageSmall": "/locations/institutions/pen/PEN_sm.jpg",
    "hasFsl": false,
    "hasFdc": false,
    "hasSff": false,
    "hasIhp": false
}, {
    "code": "PET",
    "name": "Petersburg Low",
    "nameTitle": "FCI Petersburg Low",
    "nameDisplay": "Petersburg Low FCI",
    "complexCode": "PEX",
    "type": "FCI",
    "securityLevel": "Low",
    "region": "Mid-Atlantic Region",
    "latitude": "37.29818430631364",
    "longitude": "-77.34108924865723",
    "url": "/locations/institutions/pet/",
    "timeZone": "E",
    "address": "1100 RIVER ROAD",
    "city": "HOPEWELL",
    "state": "VA",
    "zipCode": "23860",
    "phoneNumber": "804-733-7881",
    "contactEmail": "PET-ExecAssistant@bop.gov",
    "locationtype": "inst",
    "privateFacl": "f",
    "gender": "male",
    "special": false,
    "faclTypeDescription": "Federal Correctional Institution",
    "hasCamp": true,
    "imageNormal": "/locations/institutions/pet/PET_lrg.jpg",
    "imageSmall": "/locations/institutions/pet/PET_sm.jpg",
    "hasFsl": false,
    "hasFdc": false,
    "hasSff": false,
    "hasIhp": false
}, {
    "code": "PEM",
    "name": "Petersburg Medium",
    "nameTitle": "FCI Petersburg Medium",
    "nameDisplay": "Petersburg Medium FCI",
    "complexCode": "PEX",
    "type": "FCI",
    "securityLevel": "Medium",
    "region": "Mid-Atlantic Region",
    "latitude": "37.29818430631364",
    "longitude": "-77.34108924865723",
    "url": "/locations/institutions/pem/",
    "timeZone": "E",
    "address": "1060 RIVER ROAD",
    "city": "HOPEWELL",
    "state": "VA",
    "zipCode": "23860",
    "phoneNumber": "804-504-7200",
    "contactEmail": "PEM-ExecAssistant@bop.gov",
    "locationtype": "inst",
    "privateFacl": "f",
    "gender": "male",
    "special": false,
    "faclTypeDescription": "Federal Correctional Institution",
    "hasCamp": false,
    "imageNormal": "/locations/institutions/pem/PEM_lrg.jpg",
    "imageSmall": "/locations/institutions/pem/PEM_sm.jpg",
    "hasFsl": false,
    "hasFdc": false,
    "hasSff": false,
    "hasIhp": false
}, {
    "code": "PEX",
    "name": "Petersburg",
    "nameTitle": "FCC Petersburg",
    "nameDisplay": "Petersburg FCC",
    "complexCode": "PEX",
    "type": "FCC",
    "securityLevel": "N/A",
    "region": "Mid-Atlantic Region",
    "latitude": "37.29818430631364",
    "longitude": "-77.34108924865723",
    "url": "/locations/search.jsp?q\u003dFCC+Petersburg\u0026name\u003dPetersburg\u0026facilityType\u003dFCC",
    "timeZone": "E",
    "address": "1100 RIVER ROAD",
    "city": "HOPEWELL",
    "state": "VA",
    "zipCode": "23860",
    "phoneNumber": "-1--1",
    "contactEmail": "",
    "locationtype": "inst",
    "privateFacl": "f",
    "gender": "male",
    "special": false,
    "faclTypeDescription": "Federal Correctional Complex",
    "hasCamp": false,
    "imageNormal": "",
    "imageSmall": "",
    "hasFsl": false,
    "hasFdc": false,
    "hasSff": false,
    "hasIhp": false
}, {
    "code": "PHL",
    "name": "Philadelphia",
    "nameTitle": "FDC Philadelphia",
    "nameDisplay": "Philadelphia FDC",
    "complexCode": "",
    "type": "FDC",
    "securityLevel": "Administrative",
    "region": "Northeast Region",
    "latitude": "39.95254156143854",
    "longitude": "-75.15206336975098",
    "url": "/locations/institutions/phl/",
    "timeZone": "E",
    "address": "700 ARCH STREET",
    "city": "PHILADELPHIA",
    "state": "PA",
    "zipCode": "19106",
    "phoneNumber": "215-521-4000",
    "contactEmail": "PHL-ExecAssistant@bop.gov",
    "locationtype": "inst",
    "privateFacl": "f",
    "gender": "mixed",
    "special": false,
    "faclTypeDescription": "Federal Detention Center",
    "hasCamp": false,
    "imageNormal": "/locations/institutions/phl/PHL_lrg.jpg",
    "imageSmall": "/locations/institutions/phl/PHL_sm.jpg",
    "hasFsl": false,
    "hasFdc": false,
    "hasSff": false,
    "hasIhp": false
}, {
    "code": "CPA",
    "name": "Philadelphia",
    "nameTitle": "RRM Philadelphia",
    "nameDisplay": "Philadelphia RRM",
    "complexCode": "",
    "type": "RRM",
    "securityLevel": "N/A",
    "region": "Northeast Region",
    "latitude": "39.94940796479055",
    "longitude": "-75.14578700065613",
    "url": "/locations/ccm/cpa/",
    "timeZone": "E",
    "address": "2ND \u0026 CHESTNUT ST - 7TH FL",
    "city": "PHILADELPHIA",
    "state": "PA",
    "zipCode": "19106",
    "phoneNumber": "215-521-7454",
    "contactEmail": "CPA-CCM@bop.gov",
    "locationtype": "rrm",
    "privateFacl": "f",
    "gender": "n/a",
    "special": false,
    "faclTypeDescription": "Residential Reentry Office",
    "hasCamp": false,
    "imageNormal": "",
    "imageSmall": "",
    "hasFsl": false,
    "hasFdc": false,
    "hasSff": false,
    "hasIhp": false
}, {
    "code": "PHX",
    "name": "Phoenix",
    "nameTitle": "FCI Phoenix",
    "nameDisplay": "Phoenix FCI",
    "complexCode": "",
    "type": "FCI",
    "securityLevel": "Medium",
    "region": "Western Region",
    "latitude": "33.8338130100535",
    "longitude": "-112.16604351997375",
    "url": "/locations/institutions/phx/",
    "timeZone": "MA",
    "address": "37900 N 45TH AVE",
    "city": "PHOENIX",
    "state": "AZ",
    "zipCode": "85086",
    "phoneNumber": "623-465-9757",
    "contactEmail": "PHX-ExecAssistant@bop.gov",
    "locationtype": "inst",
    "privateFacl": "f",
    "gender": "mixed",
    "special": false,
    "faclTypeDescription": "Federal Correctional Institution",
    "hasCamp": true,
    "imageNormal": "/locations/institutions/phx/PHX_lrg.jpg",
    "imageSmall": "/locations/institutions/phx/PHX_sm.jpg",
    "hasFsl": false,
    "hasFdc": true,
    "hasSff": false,
    "hasIhp": false
}, {
    "code": "CPH",
    "name": "Phoenix",
    "nameTitle": "RRM Phoenix",
    "nameDisplay": "Phoenix RRM",
    "complexCode": "",
    "type": "RRM",
    "securityLevel": "N/A",
    "region": "Western Region",
    "latitude": "33.451026",
    "longitude": "-112.07539",
    "url": "/locations/ccm/cph/",
    "timeZone": "MA",
    "address": "230 N FIRST AVE, SUITE 405",
    "city": "PHOENIX",
    "state": "AZ",
    "zipCode": "85003",
    "phoneNumber": "602-514-7075",
    "contactEmail": "CPH-CCM@bop.gov",
    "locationtype": "rrm",
    "privateFacl": "f",
    "gender": "n/a",
    "special": false,
    "faclTypeDescription": "Residential Reentry Office",
    "hasCamp": false,
    "imageNormal": "",
    "imageSmall": "",
    "hasFsl": false,
    "hasFdc": false,
    "hasSff": false,
    "hasIhp": false
}, {
    "code": "CPG",
    "name": "Pittsburgh",
    "nameTitle": "RRM Pittsburgh",
    "nameDisplay": "Pittsburgh RRM",
    "complexCode": "",
    "type": "RRM",
    "securityLevel": "N/A",
    "region": "Northeast Region",
    "latitude": "40.44363210182356",
    "longitude": "-79.99524235725403",
    "url": "/locations/ccm/cpg/",
    "timeZone": "E",
    "address": "1000 LIBERTY AVENUE,STE 1315",
    "city": "PITTSBURGH",
    "state": "PA",
    "zipCode": "15222",
    "phoneNumber": "412-395-4740",
    "contactEmail": "CPG-CCM@bop.gov",
    "locationtype": "rrm",
    "privateFacl": "f",
    "gender": "n/a",
    "special": false,
    "faclTypeDescription": "Residential Reentry Office",
    "hasCamp": false,
    "imageNormal": "",
    "imageSmall": "",
    "hasFsl": false,
    "hasFdc": false,
    "hasSff": false,
    "hasIhp": false
}, {
    "code": "POX",
    "name": "Pollock",
    "nameTitle": "FCC Pollock",
    "nameDisplay": "Pollock FCC",
    "complexCode": "POX",
    "type": "FCC",
    "securityLevel": "N/A",
    "region": "South Central Region",
    "latitude": "31.46112044918768",
    "longitude": "-92.44189381599426",
    "url": "/locations/search.jsp?q\u003dFCC+Pollock\u0026name\u003dPollock\u0026facilityType\u003dFCC",
    "timeZone": "C",
    "address": "1000 AIRBASE ROAD",
    "city": "POLLOCK",
    "state": "LA",
    "zipCode": "71467",
    "phoneNumber": "318-561-5300",
    "contactEmail": "POX-ExecAssistant@bop.gov",
    "locationtype": "inst",
    "privateFacl": "f",
    "gender": "male",
    "special": false,
    "faclTypeDescription": "Federal Correctional Complex",
    "hasCamp": false,
    "imageNormal": "/locations/institutions/pom/POX_lrg.jpg",
    "imageSmall": "/locations/institutions/pom/POX_sm.jpg",
    "hasFsl": false,
    "hasFdc": false,
    "hasSff": false,
    "hasIhp": false
}, {
    "code": "POM",
    "name": "Pollock",
    "nameTitle": "FCI Pollock",
    "nameDisplay": "Pollock FCI",
    "complexCode": "POX",
    "type": "FCI",
    "securityLevel": "Medium",
    "region": "South Central Region",
    "latitude": "31.46112273709915",
    "longitude": "-92.44635298848152",
    "url": "/locations/institutions/pom/",
    "timeZone": "C",
    "address": "1000 AIRBASE ROAD",
    "city": "POLLOCK",
    "state": "LA",
    "zipCode": "71467",
    "phoneNumber": "318-765-4400",
    "contactEmail": "POL-ExecAssistant@bop.gov",
    "locationtype": "inst",
    "privateFacl": "f",
    "gender": "male",
    "special": false,
    "faclTypeDescription": "Federal Correctional Institution",
    "hasCamp": false,
    "imageNormal": "/locations/institutions/pom/POM_lrg.jpg",
    "imageSmall": "/locations/institutions/pom/POM_sm.jpg",
    "hasFsl": false,
    "hasFdc": false,
    "hasSff": false,
    "hasIhp": true
}, {
    "code": "POL",
    "name": "Pollock",
    "nameTitle": "USP Pollock",
    "nameDisplay": "Pollock USP",
    "complexCode": "POX",
    "type": "USP",
    "securityLevel": "High",
    "region": "South Central Region",
    "latitude": "31.46112044918768",
    "longitude": "-92.44189381599426",
    "url": "/locations/institutions/pol/",
    "timeZone": "C",
    "address": "1000 AIRBASE ROAD",
    "city": "POLLOCK",
    "state": "LA",
    "zipCode": "71467",
    "phoneNumber": "318-561-5300",
    "contactEmail": "POL-ExecAssistant@bop.gov",
    "locationtype": "inst",
    "privateFacl": "f",
    "gender": "male",
    "special": false,
    "faclTypeDescription": "U.S. Penitentiary",
    "hasCamp": true,
    "imageNormal": "/locations/institutions/pol/POL_lrg.jpg",
    "imageSmall": "/locations/institutions/pol/POL_sm.jpg",
    "hasFsl": false,
    "hasFdc": false,
    "hasSff": false,
    "hasIhp": true
}, {
    "code": "CRL",
    "name": "Raleigh",
    "nameTitle": "RRM Raleigh",
    "nameDisplay": "Raleigh RRM",
    "complexCode": "",
    "type": "RRM",
    "securityLevel": "N/A",
    "region": "Mid-Atlantic Region",
    "latitude": "36.144528857027744",
    "longitude": "-78.79013657569885",
    "url": "/locations/ccm/crl/",
    "timeZone": "E",
    "address": "OLD NC 75 HIGHWAY",
    "city": "BUTNER",
    "state": "NC",
    "zipCode": "27509",
    "phoneNumber": "919-575-2080",
    "contactEmail": "CRL-CCM@bop.gov",
    "locationtype": "rrm",
    "privateFacl": "f",
    "gender": "n/a",
    "special": false,
    "faclTypeDescription": "Residential Reentry Office",
    "hasCamp": false,
    "imageNormal": "",
    "imageSmall": "",
    "hasFsl": false,
    "hasFdc": false,
    "hasSff": false,
    "hasIhp": false
}, {
    "code": "RBK",
    "name": "Ray Brook",
    "nameTitle": "FCI Ray Brook",
    "nameDisplay": "Ray Brook FCI",
    "complexCode": "",
    "type": "FCI",
    "securityLevel": "Medium",
    "region": "Northeast Region",
    "latitude": "44.29396385164661",
    "longitude": "-74.09729540348053",
    "url": "/locations/institutions/rbk/",
    "timeZone": "E",
    "address": "128 RAY BROOK ROAD",
    "city": "RAY BROOK",
    "state": "NY",
    "zipCode": "12977",
    "phoneNumber": "518-897-4000",
    "contactEmail": "RBK-ExecAssistant@bop.gov",
    "locationtype": "inst",
    "privateFacl": "f",
    "gender": "male",
    "special": false,
    "faclTypeDescription": "Federal Correctional Institution",
    "hasCamp": false,
    "imageNormal": "/locations/institutions/rbk/RBK_lrg.jpg",
    "imageSmall": "/locations/institutions/rbk/RBK_sm.jpg",
    "hasFsl": false,
    "hasFdc": true,
    "hasSff": false,
    "hasIhp": false
}, {
    "code": "RCH",
    "name": "Rochester",
    "nameTitle": "FMC Rochester",
    "nameDisplay": "Rochester FMC",
    "complexCode": "",
    "type": "FMC",
    "securityLevel": "Administrative",
    "region": "North Central Region",
    "latitude": "44.02235399723002",
    "longitude": "-92.43875026702881",
    "url": "/locations/institutions/rch/",
    "timeZone": "C",
    "address": "2110 EAST CENTER STREET",
    "city": "ROCHESTER",
    "state": "MN",
    "zipCode": "55904",
    "phoneNumber": "507-287-0674",
    "contactEmail": "RCH-ExecAssistant@bop.gov",
    "locationtype": "inst",
    "privateFacl": "f",
    "gender": "male",
    "special": false,
    "faclTypeDescription": "Federal Medical Center",
    "hasCamp": false,
    "imageNormal": "/locations/institutions/rch/RCH_lrg.jpg",
    "imageSmall": "/locations/institutions/rch/RCH_sm.jpg",
    "hasFsl": false,
    "hasFdc": false,
    "hasSff": false,
    "hasIhp": false
}, {
    "code": "CSC",
    "name": "Sacramento",
    "nameTitle": "RRM Sacramento",
    "nameDisplay": "Sacramento RRM",
    "complexCode": "",
    "type": "RRM",
    "securityLevel": "N/A",
    "region": "Western Region",
    "latitude": "38.58354934727576",
    "longitude": "-121.49880051612854",
    "url": "/locations/ccm/csc/",
    "timeZone": "P",
    "address": "501 I STREET, SUITE 9-400",
    "city": "SACRAMENTO",
    "state": "CA",
    "zipCode": "95814",
    "phoneNumber": "916-930-2010",
    "contactEmail": "CSC-CCM@bop.gov",
    "locationtype": "rrm",
    "privateFacl": "f",
    "gender": "n/a",
    "special": false,
    "faclTypeDescription": "Residential Reentry Office",
    "hasCamp": false,
    "imageNormal": "",
    "imageSmall": "",
    "hasFsl": false,
    "hasFdc": false,
    "hasSff": false,
    "hasIhp": false
}, {
    "code": "SAF",
    "name": "Safford",
    "nameTitle": "FCI Safford",
    "nameDisplay": "Safford FCI",
    "complexCode": "",
    "type": "FCI",
    "securityLevel": "Low",
    "region": "Western Region",
    "latitude": "32.7172639931445",
    "longitude": "-109.72694993019104",
    "url": "/locations/institutions/saf/",
    "timeZone": "MA",
    "address": "1529 WEST HIGHWAY 366",
    "city": "SAFFORD",
    "state": "AZ",
    "zipCode": "85546",
    "phoneNumber": "928-428-6600",
    "contactEmail": "SAF-ExecAssistant@bop.gov",
    "locationtype": "inst",
    "privateFacl": "f",
    "gender": "male",
    "special": false,
    "faclTypeDescription": "Federal Correctional Institution",
    "hasCamp": false,
    "imageNormal": "/locations/institutions/saf/SAF_lrg.jpg",
    "imageSmall": "/locations/institutions/saf/SAF_sm.jpg",
    "hasFsl": false,
    "hasFdc": false,
    "hasSff": false,
    "hasIhp": false
}, {
    "code": "CSA",
    "name": "San Antonio",
    "nameTitle": "RRM San Antonio",
    "nameDisplay": "San Antonio RRM",
    "complexCode": "",
    "type": "RRM",
    "securityLevel": "N/A",
    "region": "South Central Region",
    "latitude": "29.41751655130468",
    "longitude": "-98.48473906517029",
    "url": "/locations/ccm/csa",
    "timeZone": "C",
    "address": "727 EAST CESAR E. CHAVEZ BLV",
    "city": "SAN ANTONIO",
    "state": "TX",
    "zipCode": "78206",
    "phoneNumber": "210-472-6225",
    "contactEmail": "CSA-CCM@bop.gov",
    "locationtype": "rrm",
    "privateFacl": "f",
    "gender": "n/a",
    "special": false,
    "faclTypeDescription": "Residential Reentry Office",
    "hasCamp": false,
    "imageNormal": "",
    "imageSmall": "",
    "hasFsl": false,
    "hasFdc": false,
    "hasSff": false,
    "hasIhp": false
}, {
    "code": "SDC",
    "name": "San Diego",
    "nameTitle": "MCC San Diego",
    "nameDisplay": "San Diego MCC",
    "complexCode": "",
    "type": "MCC",
    "securityLevel": "Administrative",
    "region": "Western Region",
    "latitude": "32.713711922121874",
    "longitude": "-117.16561675071716",
    "url": "/locations/institutions/sdc/",
    "timeZone": "P",
    "address": "808 UNION STREET",
    "city": "SAN DIEGO",
    "state": "CA",
    "zipCode": "92101",
    "phoneNumber": "619-232-4311",
    "contactEmail": "SDC-ExecAssistant@bop.gov",
    "locationtype": "inst",
    "privateFacl": "f",
    "gender": "mixed",
    "special": false,
    "faclTypeDescription": "Metropolitan Correctional Center",
    "hasCamp": false,
    "imageNormal": "/locations/institutions/sdc/SDC_lrg.jpg",
    "imageSmall": "/locations/institutions/sdc/SDC_sm.jpg",
    "hasFsl": false,
    "hasFdc": false,
    "hasSff": false,
    "hasIhp": false
}, {
    "code": "SST",
    "name": "Sandstone",
    "nameTitle": "FCI Sandstone",
    "nameDisplay": "Sandstone FCI",
    "complexCode": "",
    "type": "FCI",
    "securityLevel": "Low",
    "region": "North Central Region",
    "latitude": "46.11080500419979",
    "longitude": "-92.85080194473267",
    "url": "/locations/institutions/sst/",
    "timeZone": "C",
    "address": "2300 COUNTY RD 29",
    "city": "SANDSTONE",
    "state": "MN",
    "zipCode": "55072",
    "phoneNumber": "320-245-2262",
    "contactEmail": "SST-ExecAssistant@bop.gov",
    "locationtype": "inst",
    "privateFacl": "f",
    "gender": "male",
    "special": false,
    "faclTypeDescription": "Federal Correctional Institution",
    "hasCamp": false,
    "imageNormal": "/locations/institutions/sst/SST_lrg.jpg",
    "imageSmall": "/locations/institutions/sst/SST_sm.jpg",
    "hasFsl": false,
    "hasFdc": false,
    "hasSff": false,
    "hasIhp": false
}, {
    "code": "SCH",
    "name": "Schuylkill",
    "nameTitle": "FCI Schuylkill",
    "nameDisplay": "Schuylkill FCI",
    "complexCode": "",
    "type": "FCI",
    "securityLevel": "Medium",
    "region": "Northeast Region",
    "latitude": "40.720412475732395",
    "longitude": "-76.35017931461334",
    "url": "/locations/institutions/sch/",
    "timeZone": "E",
    "address": "INTERSTATE 81 \u0026 901 W",
    "city": "MINERSVILLE",
    "state": "PA",
    "zipCode": "17954",
    "phoneNumber": "570-544-7100",
    "contactEmail": "SCH-ExecAssistant@bop.gov",
    "locationtype": "inst",
    "privateFacl": "f",
    "gender": "male",
    "special": false,
    "faclTypeDescription": "Federal Correctional Institution",
    "hasCamp": true,
    "imageNormal": "/locations/institutions/sch/SCH_lrg.jpg",
    "imageSmall": "/locations/institutions/sch/SCH_sm.jpg",
    "hasFsl": false,
    "hasFdc": false,
    "hasSff": false,
    "hasIhp": false
}, {
    "code": "SEA",
    "name": "Seagoville",
    "nameTitle": "FCI Seagoville",
    "nameDisplay": "Seagoville FCI",
    "complexCode": "",
    "type": "FCI",
    "securityLevel": "Low",
    "region": "South Central Region",
    "latitude": "32.65720731538505",
    "longitude": "-96.56396627426147",
    "url": "/locations/institutions/sea/",
    "timeZone": "C",
    "address": "2113 NORTH HWY 175",
    "city": "SEAGOVILLE",
    "state": "TX",
    "zipCode": "75159",
    "phoneNumber": "972-287-2911",
    "contactEmail": "SEA-ExecAssistant@bop.gov",
    "locationtype": "inst",
    "privateFacl": "f",
    "gender": "male",
    "special": false,
    "faclTypeDescription": "Federal Correctional Institution",
    "hasCamp": true,
    "imageNormal": "/locations/institutions/sea/SEA_lrg.jpg",
    "imageSmall": "/locations/institutions/sea/SEA_sm.jpg",
    "hasFsl": false,
    "hasFdc": true,
    "hasSff": false,
    "hasIhp": false
}, {
    "code": "SET",
    "name": "SeaTac",
    "nameTitle": "FDC SeaTac",
    "nameDisplay": "SeaTac FDC",
    "complexCode": "",
    "type": "FDC",
    "securityLevel": "Administrative",
    "region": "Western Region",
    "latitude": "47.422708646659736",
    "longitude": "-122.30184316635132",
    "url": "/locations/institutions/set/",
    "timeZone": "P",
    "address": "2425 SOUTH 200TH STREET",
    "city": "SEATTLE",
    "state": "WA",
    "zipCode": "98198",
    "phoneNumber": "206-870-5700",
    "contactEmail": "SET-ExecAssistant@bop.gov",
    "locationtype": "inst",
    "privateFacl": "f",
    "gender": "mixed",
    "special": false,
    "faclTypeDescription": "Federal Detention Center",
    "hasCamp": false,
    "imageNormal": "/locations/institutions/set/SET_lrg.jpg",
    "imageSmall": "/locations/institutions/set/SET_sm.jpg",
    "hasFsl": false,
    "hasFdc": false,
    "hasSff": false,
    "hasIhp": true
}, {
    "code": "CSE",
    "name": "Seattle",
    "nameTitle": "RRM Seattle",
    "nameDisplay": "Seattle RRM",
    "complexCode": "",
    "type": "RRM",
    "securityLevel": "N/A",
    "region": "Western Region",
    "latitude": "47.4227076",
    "longitude": "-122.3024917",
    "url": "/locations/ccm/cse",
    "timeZone": "P",
    "address": "2425 SOUTH 200 ST (AT FDC)",
    "city": "SEATTLE",
    "state": "WA",
    "zipCode": "98198",
    "phoneNumber": "206-870-1011",
    "contactEmail": "CSE-CCM@bop.gov",
    "locationtype": "rrm",
    "privateFacl": "f",
    "gender": "n/a",
    "special": false,
    "faclTypeDescription": "Residential Reentry Office",
    "hasCamp": false,
    "imageNormal": "",
    "imageSmall": "",
    "hasFsl": false,
    "hasFdc": false,
    "hasSff": false,
    "hasIhp": false
}, {
    "code": "SHE",
    "name": "Sheridan",
    "nameTitle": "FCI Sheridan",
    "nameDisplay": "Sheridan FCI",
    "complexCode": "",
    "type": "FCI",
    "securityLevel": "Medium",
    "region": "Western Region",
    "latitude": "45.0840436625543",
    "longitude": "-123.39583039283752",
    "url": "/locations/institutions/she/",
    "timeZone": "P",
    "address": "27072 BALLSTON ROAD",
    "city": "SHERIDAN",
    "state": "OR",
    "zipCode": "97378",
    "phoneNumber": "503-843-4442",
    "contactEmail": "SHE-ExecAssistant@bop.gov",
    "locationtype": "inst",
    "privateFacl": "f",
    "gender": "male",
    "special": false,
    "faclTypeDescription": "Federal Correctional Institution",
    "hasCamp": true,
    "imageNormal": "/locations/institutions/she/SHE_lrg.jpg",
    "imageSmall": "/locations/institutions/she/SHE_sm.jpg",
    "hasFsl": false,
    "hasFdc": true,
    "hasSff": false,
    "hasIhp": false
}, {
    "code": "SCR",
    "name": "South Central",
    "nameTitle": "RO South Central",
    "nameDisplay": "South Central RO",
    "complexCode": "",
    "type": "RO",
    "securityLevel": "N/A",
    "region": "South Central Region",
    "latitude": "32.741985",
    "longitude": "-96.958036",
    "url": "/locations/regional_offices/scro/",
    "timeZone": "C",
    "address": "US ARMED FORCES RESERVE CMPL",
    "city": "GRAND PRAIRIE",
    "state": "TX",
    "zipCode": "75051",
    "phoneNumber": "972-730-8600",
    "contactEmail": "SCRO-ExecAssistant@bop.gov",
    "locationtype": "ro",
    "privateFacl": "f",
    "gender": "n/a",
    "special": false,
    "faclTypeDescription": "Regional Office",
    "hasCamp": false,
    "imageNormal": "/locations/regional_offices/scro/SCRO_lrg.jpg",
    "imageSmall": "/locations/regional_offices/scro/SCRO_sm.jpg",
    "hasFsl": false,
    "hasFdc": false,
    "hasSff": false,
    "hasIhp": false
}, {
    "code": "SER",
    "name": "Southeast",
    "nameTitle": "RO Southeast",
    "nameDisplay": "Southeast RO",
    "complexCode": "",
    "type": "RO",
    "securityLevel": "N/A",
    "region": "Southeast Region",
    "latitude": "33.65056526729136",
    "longitude": "-84.47198867797852",
    "url": "/locations/regional_offices/sero/",
    "timeZone": "E",
    "address": "3800 CAMP CRK PK SW/BDG 2000",
    "city": "ATLANTA",
    "state": "GA",
    "zipCode": "30331",
    "phoneNumber": "678-686-1200",
    "contactEmail": "SERO-ExecAssistant@bop.gov",
    "locationtype": "ro",
    "privateFacl": "f",
    "gender": "n/a",
    "special": false,
    "faclTypeDescription": "Regional Office",
    "hasCamp": false,
    "imageNormal": "/locations/regional_offices/sero/SERO_lrg.jpg",
    "imageSmall": "/locations/regional_offices/sero/SERO_sm.jpg",
    "hasFsl": false,
    "hasFdc": false,
    "hasSff": false,
    "hasIhp": false
}, {
    "code": "SPG",
    "name": "Springfield",
    "nameTitle": "MCFP Springfield",
    "nameDisplay": "Springfield MCFP",
    "complexCode": "",
    "type": "MCFP",
    "securityLevel": "Administrative",
    "region": "North Central Region",
    "latitude": "37.177577690810566",
    "longitude": "-93.32125067710876",
    "url": "/locations/institutions/spg/",
    "timeZone": "C",
    "address": "1900 W. SUNSHINE ST",
    "city": "SPRINGFIELD",
    "state": "MO",
    "zipCode": "65807",
    "phoneNumber": "417-862-7041",
    "contactEmail": "SPG-ExecAssistant@bop.gov",
    "locationtype": "inst",
    "privateFacl": "f",
    "gender": "male",
    "special": false,
    "faclTypeDescription": "Federal Medical Center",
    "hasCamp": false,
    "imageNormal": "/locations/institutions/spg/SPG_lrg.jpg",
    "imageSmall": "/locations/institutions/spg/SPG_sm.jpg",
    "hasFsl": false,
    "hasFdc": false,
    "hasSff": false,
    "hasIhp": false
}, {
    "code": "CST",
    "name": "St Louis",
    "nameTitle": "RRM St Louis",
    "nameDisplay": "St Louis RRM",
    "complexCode": "",
    "type": "RRM",
    "securityLevel": "N/A",
    "region": "North Central Region",
    "latitude": "38.62438528072939",
    "longitude": "-90.19984602928162",
    "url": "/locations/ccm/cst/",
    "timeZone": "C",
    "address": "1222 SPRUCE ST, SUITE 6.101",
    "city": "ST LOUIS",
    "state": "MO",
    "zipCode": "63103",
    "phoneNumber": "314-539-2376",
    "contactEmail": "CST-CCM@bop.gov",
    "locationtype": "rrm",
    "privateFacl": "f",
    "gender": "n/a",
    "special": false,
    "faclTypeDescription": "Residential Reentry Office",
    "hasCamp": false,
    "imageNormal": "",
    "imageSmall": "",
    "hasFsl": false,
    "hasFdc": false,
    "hasSff": false,
    "hasIhp": false
}, {
    "code": "TDG",
    "name": "Talladega",
    "nameTitle": "FCI Talladega",
    "nameDisplay": "Talladega FCI",
    "complexCode": "",
    "type": "FCI",
    "securityLevel": "Medium",
    "region": "Southeast Region",
    "latitude": "33.42497652085813",
    "longitude": "-86.14289224147797",
    "url": "/locations/institutions/tdg/",
    "timeZone": "C",
    "address": "565 EAST RENFROE ROAD",
    "city": "TALLADEGA",
    "state": "AL",
    "zipCode": "35160",
    "phoneNumber": "256-315-4100",
    "contactEmail": "TDG-ExecAssistant@bop.gov",
    "locationtype": "inst",
    "privateFacl": "f",
    "gender": "male",
    "special": false,
    "faclTypeDescription": "Federal Correctional Institution",
    "hasCamp": true,
    "imageNormal": "/locations/institutions/tdg/TDG_lrg.jpg",
    "imageSmall": "/locations/institutions/tdg/TDG_sm.jpg",
    "hasFsl": false,
    "hasFdc": false,
    "hasSff": false,
    "hasIhp": false
}, {
    "code": "TAL",
    "name": "Tallahassee",
    "nameTitle": "FCI Tallahassee",
    "nameDisplay": "Tallahassee FCI",
    "complexCode": "",
    "type": "FCI",
    "securityLevel": "Low",
    "region": "Southeast Region",
    "latitude": "30.440196462640507",
    "longitude": "-84.2227578163147",
    "url": "/locations/institutions/tal/",
    "timeZone": "E",
    "address": "501 CAPITAL CIRCLE, NE",
    "city": "TALLAHASSEE",
    "state": "FL",
    "zipCode": "32301",
    "phoneNumber": "850-878-2173",
    "contactEmail": "TAL-ExecAssistant@bop.gov",
    "locationtype": "inst",
    "privateFacl": "f",
    "gender": "mixed",
    "special": false,
    "faclTypeDescription": "Federal Correctional Institution",
    "hasCamp": false,
    "imageNormal": "/locations/institutions/tal/TAL_lrg.jpg",
    "imageSmall": "/locations/institutions/tal/TAL_sm.jpg",
    "hasFsl": false,
    "hasFdc": true,
    "hasSff": false,
    "hasIhp": false
}, {
    "code": "TRM",
    "name": "Terminal Island",
    "nameTitle": "FCI Terminal Island",
    "nameDisplay": "Terminal Island FCI",
    "complexCode": "",
    "type": "FCI",
    "securityLevel": "Low",
    "region": "Western Region",
    "latitude": "33.72717724642843",
    "longitude": "-118.26813876628876",
    "url": "/locations/institutions/trm/",
    "timeZone": "P",
    "address": "1299 SEASIDE AVENUE",
    "city": "SAN PEDRO",
    "state": "CA",
    "zipCode": "90731",
    "phoneNumber": "310-831-8961",
    "contactEmail": "TRM-ExecAssistant@bop.gov",
    "locationtype": "inst",
    "privateFacl": "f",
    "gender": "male",
    "special": false,
    "faclTypeDescription": "Federal Correctional Institution",
    "hasCamp": false,
    "imageNormal": "/locations/institutions/trm/TRM_lrg.jpg",
    "imageSmall": "/locations/institutions/trm/TRM_sm.jpg",
    "hasFsl": false,
    "hasFdc": false,
    "hasSff": false,
    "hasIhp": false
}, {
    "code": "THX",
    "name": "Terre Haute",
    "nameTitle": "FCC Terre Haute",
    "nameDisplay": "Terre Haute FCC",
    "complexCode": "THX",
    "type": "FCC",
    "securityLevel": "N/A",
    "region": "North Central Region",
    "latitude": "39.41426418872239",
    "longitude": "-87.45130062103271",
    "url": "/locations/search.jsp?q\u003dFCC+Terre+Haute\u0026name\u003dTerre+Haute\u0026facilityType\u003dFCC",
    "timeZone": "E",
    "address": "4200 BUREAU ROAD NORTH",
    "city": "TERRE HAUTE",
    "state": "IN",
    "zipCode": "47808",
    "phoneNumber": "812-238-1531",
    "contactEmail": "",
    "locationtype": "inst",
    "privateFacl": "f",
    "gender": "male",
    "special": false,
    "faclTypeDescription": "Federal Correctional Complex",
    "hasCamp": false,
    "imageNormal": "",
    "imageSmall": "",
    "hasFsl": false,
    "hasFdc": false,
    "hasSff": false,
    "hasIhp": false
}, {
    "code": "THA",
    "name": "Terre Haute",
    "nameTitle": "FCI Terre Haute",
    "nameDisplay": "Terre Haute FCI",
    "complexCode": "THX",
    "type": "FCI",
    "securityLevel": "Medium",
    "region": "North Central Region",
    "latitude": "39.41426418872239",
    "longitude": "-87.45132207870483",
    "url": "/locations/institutions/tha/",
    "timeZone": "E",
    "address": "4200 BUREAU ROAD NORTH",
    "city": "TERRE HAUTE",
    "state": "IN",
    "zipCode": "47808",
    "phoneNumber": "812-238-1531",
    "contactEmail": "THA-ExecAssistant@bop.gov",
    "locationtype": "inst",
    "privateFacl": "f",
    "gender": "male",
    "special": false,
    "faclTypeDescription": "Federal Correctional Institution",
    "hasCamp": true,
    "imageNormal": "/locations/institutions/tha/THA_lrg.jpg",
    "imageSmall": "/locations/institutions/tha/THA_sm.jpg",
    "hasFsl": false,
    "hasFdc": false,
    "hasSff": false,
    "hasIhp": false
}, {
    "code": "THP",
    "name": "Terre Haute",
    "nameTitle": "USP Terre Haute",
    "nameDisplay": "Terre Haute USP",
    "complexCode": "THX",
    "type": "USP",
    "securityLevel": "High",
    "region": "North Central Region",
    "latitude": "39.40987096713173",
    "longitude": "-87.45582818984985",
    "url": "/locations/institutions/thp/",
    "timeZone": "E",
    "address": "4700 BUREAU ROAD SOUTH",
    "city": "TERRE HAUTE",
    "state": "IN",
    "zipCode": "47802",
    "phoneNumber": "812-244-4400",
    "contactEmail": "THA-ExecAssistant@bop.gov",
    "locationtype": "inst",
    "privateFacl": "f",
    "gender": "male",
    "special": false,
    "faclTypeDescription": "U.S. Penitentiary",
    "hasCamp": false,
    "imageNormal": "/locations/institutions/thp/THP_lrg.jpg",
    "imageSmall": "/locations/institutions/thp/THP_sm.jpg",
    "hasFsl": false,
    "hasFdc": false,
    "hasSff": false,
    "hasIhp": false
}, {
    "code": "TEX",
    "name": "Texarkana",
    "nameTitle": "FCI Texarkana",
    "nameDisplay": "Texarkana FCI",
    "complexCode": "",
    "type": "FCI",
    "securityLevel": "Low",
    "region": "South Central Region",
    "latitude": "33.37551640898179",
    "longitude": "-94.09211754798889",
    "url": "/locations/institutions/tex/",
    "timeZone": "C",
    "address": "4001 LEOPARD DRIVE",
    "city": "TEXARKANA",
    "state": "TX",
    "zipCode": "75501",
    "phoneNumber": "903-838-4587",
    "contactEmail": "TEX-ExecAssistant@bop.gov",
    "locationtype": "inst",
    "privateFacl": "f",
    "gender": "male",
    "special": false,
    "faclTypeDescription": "Federal Correctional Institution",
    "hasCamp": true,
    "imageNormal": "/locations/institutions/tex/TEX_lrg.jpg",
    "imageSmall": "/locations/institutions/tex/TEX_sm.jpg",
    "hasFsl": false,
    "hasFdc": false,
    "hasSff": false,
    "hasIhp": false
}, {
    "code": "TOM",
    "name": "Thomson",
    "nameTitle": "USP Thomson",
    "nameDisplay": "Thomson USP",
    "complexCode": "",
    "type": "USP",
    "securityLevel": "High",
    "region": "North Central Region",
    "latitude": "41.969953",
    "longitude": "-90.104878",
    "url": "/locations/institutions/tom/",
    "timeZone": "C",
    "address": "1100 ONE MILE ROAD",
    "city": "THOMSON",
    "state": "IL",
    "zipCode": "61285",
    "phoneNumber": "815-259-1000",
    "contactEmail": "TOM-ExecAssistant@bop.gov",
    "locationtype": "inst",
    "privateFacl": "f",
    "gender": "male",
    "special": false,
    "faclTypeDescription": "U.S. Penitentiary",
    "hasCamp": true,
    "imageNormal": "/locations/institutions/tom/TOM_lrg.jpg",
    "imageSmall": "/locations/institutions/tom/TOM_sm.jpg",
    "hasFsl": false,
    "hasFdc": false,
    "hasSff": false,
    "hasIhp": false
}, {
    "code": "TRV",
    "name": "Three Rivers",
    "nameTitle": "FCI Three Rivers",
    "nameDisplay": "Three Rivers FCI",
    "complexCode": "",
    "type": "FCI",
    "securityLevel": "Medium",
    "region": "South Central Region",
    "latitude": "28.447770202636647",
    "longitude": "-98.32241177558899",
    "url": "/locations/institutions/trv/",
    "timeZone": "C",
    "address": "US HIGHWAY 72 WEST",
    "city": "THREE RIVERS",
    "state": "TX",
    "zipCode": "78071",
    "phoneNumber": "361-786-3576",
    "contactEmail": "TRV-ExecAssistant@bop.gov",
    "locationtype": "inst",
    "privateFacl": "f",
    "gender": "male",
    "special": false,
    "faclTypeDescription": "Federal Correctional Institution",
    "hasCamp": true,
    "imageNormal": "/locations/institutions/trv/TRV_lrg.jpg",
    "imageSmall": "/locations/institutions/trv/TRV_sm.jpg",
    "hasFsl": false,
    "hasFdc": false,
    "hasSff": false,
    "hasIhp": false
}, {
    "code": "TCX",
    "name": "Tucson",
    "nameTitle": "FCC Tucson",
    "nameDisplay": "Tucson FCC",
    "complexCode": "TCX",
    "type": "FCC",
    "securityLevel": "N/A",
    "region": "Western Region",
    "latitude": "32.08849219605296",
    "longitude": "-110.85797846317291",
    "url": "/locations/search.jsp?q\u003dFCC+Tucson\u0026name\u003dTucson\u0026facilityType\u003dFCC",
    "timeZone": "MA",
    "address": "8901 S. WILMOT ROAD",
    "city": "TUCSON",
    "state": "AZ",
    "zipCode": "85756",
    "phoneNumber": "520-574-7100",
    "contactEmail": "",
    "locationtype": "inst",
    "privateFacl": "f",
    "gender": "mixed",
    "special": false,
    "faclTypeDescription": "Federal Correctional Complex",
    "hasCamp": false,
    "imageNormal": "",
    "imageSmall": "",
    "hasFsl": false,
    "hasFdc": false,
    "hasSff": false,
    "hasIhp": false
}, {
    "code": "TCN",
    "name": "Tucson",
    "nameTitle": "FCI Tucson",
    "nameDisplay": "Tucson FCI",
    "complexCode": "TCX",
    "type": "FCI",
    "securityLevel": "Medium",
    "region": "Western Region",
    "latitude": "32.08849219605296",
    "longitude": "-110.85797846317291",
    "url": "/locations/institutions/tcn/",
    "timeZone": "MA",
    "address": "8901 S. WILMOT ROAD",
    "city": "TUCSON",
    "state": "AZ",
    "zipCode": "85756",
    "phoneNumber": "520-574-7100",
    "contactEmail": "TCN-ExecAssistant@bop.gov",
    "locationtype": "inst",
    "privateFacl": "f",
    "gender": "mixed",
    "special": false,
    "faclTypeDescription": "Federal Correctional Institution",
    "hasCamp": false,
    "imageNormal": "/locations/institutions/tcn/TCN_lrg.jpg",
    "imageSmall": "/locations/institutions/tcn/TCN_sm.jpg",
    "hasFsl": false,
    "hasFdc": true,
    "hasSff": false,
    "hasIhp": false
}, {
    "code": "TCP",
    "name": "Tucson",
    "nameTitle": "USP Tucson",
    "nameDisplay": "Tucson USP",
    "complexCode": "TCX",
    "type": "USP",
    "securityLevel": "High",
    "region": "Western Region",
    "latitude": "32.08849219605296",
    "longitude": "-110.85797846317291",
    "url": "/locations/institutions/tcp/",
    "timeZone": "MA",
    "address": "9300 SOUTH WILMOT ROAD",
    "city": "TUCSON",
    "state": "AZ",
    "zipCode": "85756",
    "phoneNumber": "520-663-5000",
    "contactEmail": "TCP-ExecAssistant@bop.gov",
    "locationtype": "inst",
    "privateFacl": "f",
    "gender": "male",
    "special": false,
    "faclTypeDescription": "U.S. Penitentiary",
    "hasCamp": true,
    "imageNormal": "/locations/institutions/tcp/TCP_lrg.jpg",
    "imageSmall": "/locations/institutions/tcp/TCP_sm.jpg",
    "hasFsl": false,
    "hasFdc": false,
    "hasSff": false,
    "hasIhp": false
}, {
    "code": "VIM",
    "name": "Victorville Medium I",
    "nameTitle": "FCI Victorville Medium I",
    "nameDisplay": "Victorville Medium I FCI",
    "complexCode": "VIX",
    "type": "FCI",
    "securityLevel": "Medium",
    "region": "Western Region",
    "latitude": "34.57220331752011",
    "longitude": "-117.36047387123108",
    "url": "/locations/institutions/vim/",
    "timeZone": "P",
    "address": "13777 AIR EXPRESSWAY BLVD",
    "city": "VICTORVILLE",
    "state": "CA",
    "zipCode": "92394",
    "phoneNumber": "760-246-2400",
    "contactEmail": "VIM-ExecAssistant-S@bop.gov",
    "locationtype": "inst",
    "privateFacl": "f",
    "gender": "male",
    "special": false,
    "faclTypeDescription": "Federal Correctional Institution",
    "hasCamp": false,
    "imageNormal": "/locations/institutions/vim/VIM_lrg.jpg",
    "imageSmall": "/locations/institutions/vim/VIM_sm.jpg",
    "hasFsl": false,
    "hasFdc": false,
    "hasSff": false,
    "hasIhp": true
}, {
    "code": "VVM",
    "name": "Victorville Medium II",
    "nameTitle": "FCI Victorville Medium II",
    "nameDisplay": "Victorville Medium II FCI",
    "complexCode": "VIX",
    "type": "FCI",
    "securityLevel": "Medium",
    "region": "Western Region",
    "latitude": "34.57220331752011",
    "longitude": "-117.36047387123108",
    "url": "/locations/institutions/vvm/",
    "timeZone": "P",
    "address": "13777 AIR EXPRESSWAY BLVD",
    "city": "VICTORVILLE",
    "state": "CA",
    "zipCode": "92394",
    "phoneNumber": "760-530-5700",
    "contactEmail": "VIM-ExecAssistant-S@bop.gov",
    "locationtype": "inst",
    "privateFacl": "f",
    "gender": "mixed",
    "special": false,
    "faclTypeDescription": "Federal Correctional Institution",
    "hasCamp": false,
    "imageNormal": "/locations/institutions/vvm/VVM_lrg.jpg",
    "imageSmall": "/locations/institutions/vvm/VVM_sm.jpg",
    "hasFsl": false,
    "hasFdc": false,
    "hasSff": false,
    "hasIhp": true
}, {
    "code": "VIX",
    "name": "Victorville",
    "nameTitle": "FCC Victorville",
    "nameDisplay": "Victorville FCC",
    "complexCode": "VIX",
    "type": "FCC",
    "securityLevel": "N/A",
    "region": "Western Region",
    "latitude": "34.57220331752011",
    "longitude": "-117.36047387123108",
    "url": "/locations/search.jsp?q\u003dFCC+Victorville\u0026name\u003dVictorville\u0026facilityType\u003dFCC",
    "timeZone": "P",
    "address": "13777 AIR EXPRESSWAY BLVD",
    "city": "VICTORVILLE",
    "state": "CA",
    "zipCode": "92394",
    "phoneNumber": "-1--1",
    "contactEmail": "VIM-ExecAssistant-S@bop.gov",
    "locationtype": "inst",
    "privateFacl": "f",
    "gender": "mixed",
    "special": false,
    "faclTypeDescription": "Federal Correctional Complex",
    "hasCamp": false,
    "imageNormal": "",
    "imageSmall": "",
    "hasFsl": false,
    "hasFdc": false,
    "hasSff": false,
    "hasIhp": false
}, {
    "code": "VIP",
    "name": "Victorville",
    "nameTitle": "USP Victorville",
    "nameDisplay": "Victorville USP",
    "complexCode": "VIX",
    "type": "USP",
    "securityLevel": "High",
    "region": "Western Region",
    "latitude": "34.57220331752011",
    "longitude": "-117.36047387123108",
    "url": "/locations/institutions/vip/",
    "timeZone": "P",
    "address": "13777 AIR EXPRESSWAY BLVD",
    "city": "VICTORVILLE",
    "state": "CA",
    "zipCode": "92394",
    "phoneNumber": "760-530-5000",
    "contactEmail": "VIM-ExecAssistant-S@bop.gov",
    "locationtype": "inst",
    "privateFacl": "f",
    "gender": "male",
    "special": false,
    "faclTypeDescription": "U.S. Penitentiary",
    "hasCamp": false,
    "imageNormal": "/locations/institutions/vip/VIP_lrg.jpg",
    "imageSmall": "/locations/institutions/vip/VIP_sm.jpg",
    "hasFsl": false,
    "hasFdc": false,
    "hasSff": false,
    "hasIhp": true
}, {
    "code": "WAS",
    "name": "Waseca",
    "nameTitle": "FCI Waseca",
    "nameDisplay": "Waseca FCI",
    "complexCode": "",
    "type": "FCI",
    "securityLevel": "Low",
    "region": "North Central Region",
    "latitude": "44.0658184987203",
    "longitude": "-93.51654767990112",
    "url": "/locations/institutions/was/",
    "timeZone": "C",
    "address": "1000 UNIVERSITY DR, SW",
    "city": "WASECA",
    "state": "MN",
    "zipCode": "56093",
    "phoneNumber": "507-835-8972",
    "contactEmail": "WAS-ExecAssistant@bop.gov",
    "locationtype": "inst",
    "privateFacl": "f",
    "gender": "female",
    "special": false,
    "faclTypeDescription": "Federal Correctional Institution",
    "hasCamp": false,
    "imageNormal": "/locations/institutions/was/WAS_lrg.jpg",
    "imageSmall": "/locations/institutions/was/WAS_sm.jpg",
    "hasFsl": false,
    "hasFdc": false,
    "hasSff": false,
    "hasIhp": true
}, {
    "code": "WXR",
    "name": "Western",
    "nameTitle": "RO Western",
    "nameDisplay": "Western RO",
    "complexCode": "",
    "type": "RO",
    "securityLevel": "N/A",
    "region": "Western Region",
    "latitude": "38.01678123430942",
    "longitude": "-121.35812938213348",
    "url": "/locations/regional_offices/wxro/",
    "timeZone": "P",
    "address": "7338 SHORELINE DRIVE",
    "city": "STOCKTON",
    "state": "CA",
    "zipCode": "95219",
    "phoneNumber": "209-956-9700",
    "contactEmail": "WXRO-ExecAssistant@bop.gov",
    "locationtype": "ro",
    "privateFacl": "f",
    "gender": "n/a",
    "special": false,
    "faclTypeDescription": "Regional Office",
    "hasCamp": false,
    "imageNormal": "/locations/regional_offices/wxro/WXRO_lrg.jpg",
    "imageSmall": "/locations/regional_offices/wxro/WXRO_sm.jpg",
    "hasFsl": false,
    "hasFdc": false,
    "hasSff": false,
    "hasIhp": false
}, {
    "code": "WIL",
    "name": "Williamsburg",
    "nameTitle": "FCI Williamsburg",
    "nameDisplay": "Williamsburg FCI",
    "complexCode": "",
    "type": "FCI",
    "securityLevel": "Medium",
    "region": "Southeast Region",
    "latitude": "33.58941958610805",
    "longitude": "-79.8901104927063",
    "url": "/locations/institutions/wil/",
    "timeZone": "E",
    "address": "8301 HIGHWAY 521",
    "city": "SALTERS",
    "state": "SC",
    "zipCode": "29590",
    "phoneNumber": "843-387-9400",
    "contactEmail": "WIL-ExecAssistant@bop.gov",
    "locationtype": "inst",
    "privateFacl": "f",
    "gender": "male",
    "special": false,
    "faclTypeDescription": "Federal Correctional Institution",
    "hasCamp": true,
    "imageNormal": "/locations/institutions/wil/WIL_lrg.jpg",
    "imageSmall": "/locations/institutions/wil/WIL_sm.jpg",
    "hasFsl": false,
    "hasFdc": false,
    "hasSff": false,
    "hasIhp": false
}, {
    "code": "YAN",
    "name": "Yankton",
    "nameTitle": "FPC Yankton",
    "nameDisplay": "Yankton FPC",
    "complexCode": "",
    "type": "FPC",
    "securityLevel": "Minimum",
    "region": "North Central Region",
    "latitude": "42.87985586556123",
    "longitude": "-97.3919802904129",
    "url": "/locations/institutions/yan/",
    "timeZone": "C",
    "address": "1016 DOUGLAS AVENUE",
    "city": "YANKTON",
    "state": "SD",
    "zipCode": "57078",
    "phoneNumber": "605-665-3262",
    "contactEmail": "YAN-ExecAssistant@bop.gov",
    "locationtype": "inst",
    "privateFacl": "f",
    "gender": "male",
    "special": false,
    "faclTypeDescription": "Federal Prison Camp",
    "hasCamp": false,
    "imageNormal": "/locations/institutions/yan/YAN_lrg.jpg",
    "imageSmall": "/locations/institutions/yan/YAN_sm.jpg",
    "hasFsl": false,
    "hasFdc": false,
    "hasSff": false,
    "hasIhp": false
}, {
    "code": "YAZ",
    "name": "Yazoo City Low",
    "nameTitle": "FCI Yazoo City Low",
    "nameDisplay": "Yazoo City Low FCI",
    "complexCode": "YAX",
    "type": "FCI",
    "securityLevel": "Low",
    "region": "Southeast Region",
    "latitude": "32.87846088847022",
    "longitude": "-90.41682600975037",
    "url": "/locations/institutions/yaz/",
    "timeZone": "C",
    "address": "2225 HALEY BARBOUR PARKWAY",
    "city": "YAZOO CITY",
    "state": "MS",
    "zipCode": "39194",
    "phoneNumber": "662-751-4800",
    "contactEmail": "YAZ-PublicInformation@bop.gov",
    "locationtype": "inst",
    "privateFacl": "f",
    "gender": "male",
    "special": false,
    "faclTypeDescription": "Federal Correctional Institution",
    "hasCamp": true,
    "imageNormal": "/locations/institutions/yaz/YAZ_lrg.jpg",
    "imageSmall": "/locations/institutions/yaz/YAZ_sm.jpg",
    "hasFsl": false,
    "hasFdc": false,
    "hasSff": false,
    "hasIhp": false
}, {
    "code": "YAM",
    "name": "Yazoo City Medium",
    "nameTitle": "FCI Yazoo City Medium",
    "nameDisplay": "Yazoo City Medium FCI",
    "complexCode": "YAX",
    "type": "FCI",
    "securityLevel": "Medium",
    "region": "Southeast Region",
    "latitude": "32.87846088847022",
    "longitude": "-90.41682600975037",
    "url": "/locations/institutions/yam/",
    "timeZone": "C",
    "address": "2225 HALEY BARBOUR PARKWAY",
    "city": "YAZOO CITY",
    "state": "MS",
    "zipCode": "39194",
    "phoneNumber": "662-716-1020",
    "contactEmail": "YAZ-PublicInformation@bop.gov",
    "locationtype": "inst",
    "privateFacl": "f",
    "gender": "male",
    "special": false,
    "faclTypeDescription": "Federal Correctional Institution",
    "hasCamp": false,
    "imageNormal": "/locations/institutions/yam/YAM_lrg.jpg",
    "imageSmall": "/locations/institutions/yam/YAM_sm.jpg",
    "hasFsl": false,
    "hasFdc": false,
    "hasSff": false,
    "hasIhp": false
}, {
    "code": "YAX",
    "name": "Yazoo City",
    "nameTitle": "FCC Yazoo City",
    "nameDisplay": "Yazoo City FCC",
    "complexCode": "YAX",
    "type": "FCC",
    "securityLevel": "N/A",
    "region": "Southeast Region",
    "latitude": "32.87846088847022",
    "longitude": "-90.41682600975037",
    "url": "/locations/search.jsp?q\u003dFCC+Yazoo+City\u0026name\u003dYazoo+City\u0026facilityType\u003dFCC",
    "timeZone": "C",
    "address": "2225 HALEY BARBOUR PARKWAY",
    "city": "YAZOO CITY",
    "state": "MS",
    "zipCode": "39194",
    "phoneNumber": "662-751-4800",
    "contactEmail": "YAZ-PublicInformation@bop.gov",
    "locationtype": "inst",
    "privateFacl": "f",
    "gender": "male",
    "special": false,
    "faclTypeDescription": "Federal Correctional Complex",
    "hasCamp": false,
    "imageNormal": "",
    "imageSmall": "",
    "hasFsl": false,
    "hasFdc": false,
    "hasSff": false,
    "hasIhp": false
}, {
    "code": "YAP",
    "name": "Yazoo City",
    "nameTitle": "USP Yazoo City",
    "nameDisplay": "Yazoo City USP",
    "complexCode": "YAX",
    "type": "USP",
    "securityLevel": "High",
    "region": "Southeast Region",
    "latitude": "32.87846088847022",
    "longitude": "-90.41682600975037",
    "url": "/locations/institutions/yap/",
    "timeZone": "C",
    "address": "2225 HALEY BARBOUR PKWY",
    "city": "YAZOO CITY",
    "state": "MS",
    "zipCode": "39194",
    "phoneNumber": "662-716-1241",
    "contactEmail": "YAZ-PublicInformation@bop.gov",
    "locationtype": "inst",
    "privateFacl": "f",
    "gender": "male",
    "special": false,
    "faclTypeDescription": "U.S. Penitentiary",
    "hasCamp": false,
    "imageNormal": "/locations/institutions/yap/YAP_lrg.jpg",
    "imageSmall": "/locations/institutions/yap/YAP_sm.jpg",
    "hasFsl": false,
    "hasFdc": false,
    "hasSff": false,
    "hasIhp": false
}]
